2026-04-16 04:03:13.918  $HCHDG,248.88,,,,*7C
2026-04-16 04:03:13.919  $TIROT,-3.05,A*20
2026-04-16 04:03:13.932  $YXXDR,A,-111.12,D,Yaw,A,-1.54,D,Pitch,A,-0.75,D,Roll*4D
2026-04-16 04:03:13.962  !AIVDM,1,1,,B,E>kb9U7@@@@@@@@@@@@@@@@@@@@;`0W0:peP000003vP10,4*5F
2026-04-16 04:03:14.008  !AIVDO,1,1,,,B52cumP00=l:;05GKvcQ3wW1l000,0*68
2026-04-16 04:03:14.014  $HCHDG,248.87,,,,*73
2026-04-16 04:03:14.015  $TIROT,-3.40,A*21
2026-04-16 04:03:14.028  $YXXDR,A,-111.11,D,Yaw,A,-1.55,D,Pitch,A,-0.75,D,Roll*4F
2026-04-16 04:03:14.113  $HCHDG,248.87,,,,*73
2026-04-16 04:03:14.114  $TIROT,-2.71,A*22
2026-04-16 04:03:14.128  $YXXDR,A,-111.13,D,Yaw,A,-1.55,D,Pitch,A,-0.73,D,Roll*4B
2026-04-16 04:03:14.166  $GPRMC,040314,A,3730.7499,N,12211.6986,W,000.0,020.7,160426,015.0,E*64
2026-04-16 04:03:14.216  $HCHDG,248.86,,,,*72
2026-04-16 04:03:14.216  $TIROT,-2.92,A*2F
2026-04-16 04:03:14.232  $YXXDR,A,-111.13,D,Yaw,A,-1.54,D,Pitch,A,-0.73,D,Roll*4A
2026-04-16 04:03:14.309  $GPGGA,040314,3730.7499,N,12211.6986,W,1,10,0.8,-2.7,M,-28.3,M,,*53
2026-04-16 04:03:14.314  $HCHDG,248.86,,,,*72
2026-04-16 04:03:14.314  $TIROT,-3.30,A*26
2026-04-16 04:03:14.328  $YXXDR,A,-111.13,D,Yaw,A,-1.54,D,Pitch,A,-0.73,D,Roll*4A
2026-04-16 04:03:14.414  $HCHDG,248.86,,,,*72
2026-04-16 04:03:14.414  $TIROT,-1.61,A*20
2026-04-16 04:03:14.416  !AIVDM,1,1,,B,E>kb9NIQ@@@@@@@@@@@@@@@@@@@;Wq9P:l3dP00003vP10,4*4D
2026-04-16 04:03:14.428  $YXXDR,A,-111.12,D,Yaw,A,-1.54,D,Pitch,A,-0.73,D,Roll*4B
2026-04-16 04:03:14.432  $GPGSA,A,3,01,02,03,,08,10,,25,28,31,32,44,1.4,0.8,1.2*3B
2026-04-16 04:03:14.514  $HCHDG,248.87,,,,*73
2026-04-16 04:03:14.515  $TIROT,-0.43,A*21
2026-04-16 04:03:14.528  $YXXDR,A,-111.11,D,Yaw,A,-1.53,D,Pitch,A,-0.73,D,Roll*4F
2026-04-16 04:03:14.563  $IIVDR,12.77,T,,M,0.00,N*24
2026-04-16 04:03:14.578  $GPGSV,3,2,12,08,11,227,45,10,30,091,46,17,01,329,00,25,03,078,36*7C
2026-04-16 04:03:14.615  $HCHDG,248.88,,,,*7C
2026-04-16 04:03:14.615  $TIROT,0.85,A*06
2026-04-16 04:03:14.628  $YXXDR,A,-111.11,D,Yaw,A,-1.52,D,Pitch,A,-0.73,D,Roll*4E
2026-04-16 04:03:14.637  $PGRME,3.8,M,6.6,M,7.6,M*24
2026-04-16 04:03:14.699  $PGRMB,0.0,200,,,,K,,N,W*28
2026-04-16 04:03:14.714  $HCHDG,248.88,,,,*7C
2026-04-16 04:03:14.714  $TIROT,0.33,A*0B
2026-04-16 04:03:14.728  $YXXDR,A,-111.11,D,Yaw,A,-1.51,D,Pitch,A,-0.73,D,Roll*4D
2026-04-16 04:03:14.735  $PGRMM,WGS 84*06
2026-04-16 04:03:14.814  $HCHDG,248.88,,,,*7C
2026-04-16 04:03:14.814  $TIROT,0.70,A*0C
2026-04-16 04:03:14.828  $YXXDR,A,-111.11,D,Yaw,A,-1.52,D,Pitch,A,-0.73,D,Roll*4E
2026-04-16 04:03:14.915  $HCHDG,248.88,,,,*7C
2026-04-16 04:03:14.915  $TIROT,0.30,A*08
2026-04-16 04:03:14.929  $YXXDR,A,-111.11,D,Yaw,A,-1.52,D,Pitch,A,-0.74,D,Roll*49
2026-04-16 04:03:15.015  !AIVDO,1,1,,,B52cumP00=l:;05GKvcQ3wWQl000,0*08
2026-04-16 04:03:15.015  $HCHDG,248.88,,,,*7C
2026-04-16 04:03:15.016  $TIROT,-0.21,A*25
2026-04-16 04:03:15.035  $YXXDR,A,-111.11,D,Yaw,A,-1.52,D,Pitch,A,-0.74,D,Roll*49
2026-04-16 04:03:15.117  $HCHDG,248.88,,,,*7C
2026-04-16 04:03:15.117  $TIROT,0.45,A*0A
2026-04-16 04:03:15.129  $YXXDR,A,-111.10,D,Yaw,A,-1.51,D,Pitch,A,-0.75,D,Roll*4A
2026-04-16 04:03:15.169  $GPRMC,040315,A,3730.7499,N,12211.6986,W,000.0,020.7,160426,015.0,E*65
2026-04-16 04:03:15.219  $HCHDG,248.89,,,,*7D
2026-04-16 04:03:15.219  $TIROT,0.74,A*08
2026-04-16 04:03:15.233  $YXXDR,A,-111.10,D,Yaw,A,-1.51,D,Pitch,A,-0.75,D,Roll*4A
2026-04-16 04:03:15.300  !AIVDM,1,1,,A,E>kb9Khrch@@@@@@@@@@@@@@@@@;VDE8:gnMh00003vP10,4*25
2026-04-16 04:03:15.303  $IIDPT,1.08,,*7B
2026-04-16 04:03:15.313  $GPGGA,040315,3730.7499,N,12211.6986,W,1,10,0.8,-2.7,M,-28.3,M,,*52
2026-04-16 04:03:15.313  $HCHDG,248.89,,,,*7D
2026-04-16 04:03:15.313  $TIROT,-0.27,A*23
2026-04-16 04:03:15.330  $YXXDR,A,-111.09,D,Yaw,A,-1.51,D,Pitch,A,-0.75,D,Roll*42
2026-04-16 04:03:15.357  $IIHDG,,,,015,E*16
2026-04-16 04:03:15.387  $IIHDM,,M*0C
2026-04-16 04:03:15.390  !AIVDM,1,1,,B,15Ngp6P000G?g>@E`5@aEG@p0U:d,0*77
2026-04-16 04:03:15.414  $HCHDG,248.91,,,,*74
2026-04-16 04:03:15.414  $TIROT,2.32,A*08
2026-04-16 04:03:15.425  $IIHDT,,T*0C
2026-04-16 04:03:15.427  $YXXDR,A,-111.09,D,Yaw,A,-1.50,D,Pitch,A,-0.75,D,Roll*43
2026-04-16 04:03:15.437  $GPGSA,A,3,01,02,03,,08,10,,25,28,31,32,44,1.4,0.8,1.2*3B
2026-04-16 04:03:15.464  $IIMTW,90.16,C*2D
2026-04-16 04:03:15.516  $HCHDG,248.90,,,,*75
2026-04-16 04:03:15.516  $TIROT,0.05,A*0E
2026-04-16 04:03:15.522  !AIVDM,1,1,,B,H5O6DN0QE98T<61H00000000000,2*1B
2026-04-16 04:03:15.528  $YXXDR,A,-111.09,D,Yaw,A,-1.50,D,Pitch,A,-0.74,D,Roll*42
2026-04-16 04:03:15.530  $IIMWD,,T,,M,2.77,N,1.42,M*41
2026-04-16 04:03:15.566  !AIVDM,1,1,,B,E>kb9Jhqah@@@@@@@@@@@@@@@@@;W?l@:c6h000003vP10,4*2C
2026-04-16 04:03:15.567  $IIVDR,12.77,T,,M,0.00,N*24
2026-04-16 04:03:15.581  $GPGSV,3,3,12,28,55,127,48,31,37,166,49,32,50,042,49,44,46,171,49*75
2026-04-16 04:03:15.585  $IIMWV,022,T,2.77,N,A*17
2026-04-16 04:03:15.614  $HCHDG,248.90,,,,*75
2026-04-16 04:03:15.615  $TIROT,0.20,A*09
2026-04-16 04:03:15.631  $YXXDR,A,-111.09,D,Yaw,A,-1.51,D,Pitch,A,-0.75,D,Roll*42
2026-04-16 04:03:15.640  $PGRME,3.8,M,6.6,M,7.6,M*24
2026-04-16 04:03:15.642  $IIRMB,V,,,,,,,,,,,,,N*45
2026-04-16 04:03:15.704  $PGRMB,0.0,200,,,,K,,N,W*28
2026-04-16 04:03:15.704  $IIRMC,,V,,,,,,,,015,E,N*35
2026-04-16 04:03:15.711  !AIVDM,1,1,,B,H5O6DN4TFC@83WbG4<nomh285220,0*74
2026-04-16 04:03:15.715  $HCHDG,248.90,,,,*75
2026-04-16 04:03:15.715  $TIROT,0.47,A*08
2026-04-16 04:03:15.728  $YXXDR,A,-111.09,D,Yaw,A,-1.51,D,Pitch,A,-0.75,D,Roll*42
2026-04-16 04:03:15.739  $PGRMM,WGS 84*06
2026-04-16 04:03:15.768  $IIVHW,,T,,M,0.00,N,0.00,K*55
2026-04-16 04:03:15.815  $HCHDG,248.90,,,,*75
2026-04-16 04:03:15.815  $TIROT,0.18,A*02
2026-04-16 04:03:15.834  $YXXDR,A,-111.10,D,Yaw,A,-1.52,D,Pitch,A,-0.75,D,Roll*49
2026-04-16 04:03:15.843  $IIVLW,5768.51,N,5768.51,N*4D
2026-04-16 04:03:15.896  $IIVTG,,T,,M,,N,,K,N*3B
2026-04-16 04:03:15.914  $HCHDG,248.89,,,,*7D
2026-04-16 04:03:15.914  $TIROT,-1.35,A*21
2026-04-16 04:03:15.928  $YXXDR,A,-111.08,D,Yaw,A,-1.51,D,Pitch,A,-0.75,D,Roll*43
2026-04-16 04:03:16.008  !AIVDO,1,1,,,B52cumP00=l:;05GKvcQ3w`1l000,0*5F
2026-04-16 04:03:16.013  $HCHDG,248.91,,,,*74
2026-04-16 04:03:16.013  $TIROT,0.74,A*08
2026-04-16 04:03:16.028  $YXXDR,A,-111.08,D,Yaw,A,-1.51,D,Pitch,A,-0.76,D,Roll*40
2026-04-16 04:03:16.114  $HCHDG,248.91,,,,*74
2026-04-16 04:03:16.114  $TIROT,1.10,A*0B
2026-04-16 04:03:16.130  $YXXDR,A,-111.06,D,Yaw,A,-1.51,D,Pitch,A,-0.77,D,Roll*4F
2026-04-16 04:03:16.166  $GPRMC,040316,A,3730.7499,N,12211.6986,W,000.0,020.7,160426,015.0,E*66
2026-04-16 04:03:16.214  $HCHDG,248.93,,,,*76
2026-04-16 04:03:16.214  $TIROT,3.77,A*08
2026-04-16 04:03:16.229  $YXXDR,A,-111.07,D,Yaw,A,-1.51,D,Pitch,A,-0.77,D,Roll*4E
2026-04-16 04:03:16.241  !AIVDM,1,1,,B,15NJQiPP19G@8c@EW?9SWRlR04P<,0*1D
2026-04-16 04:03:16.306  $GPGGA,040316,3730.7499,N,12211.6986,W,1,10,0.8,-2.8,M,-28.3,M,,*5E
2026-04-16 04:03:16.314  $HCHDG,248.92,,,,*77
2026-04-16 04:03:16.314  $TIROT,1.34,A*0D
2026-04-16 04:03:16.331  $YXXDR,A,-111.07,D,Yaw,A,-1.50,D,Pitch,A,-0.76,D,Roll*4E
2026-04-16 04:03:16.414  $HCHDG,248.92,,,,*77
2026-04-16 04:03:16.414  $TIROT,-0.37,A*22
2026-04-16 04:03:16.432  $YXXDR,A,-111.06,D,Yaw,A,-1.50,D,Pitch,A,-0.76,D,Roll*4F
2026-04-16 04:03:16.432  $GPGSA,A,3,01,02,03,,08,10,,25,28,31,32,44,1.4,0.8,1.2*3B
2026-04-16 04:03:16.517  $HCHDG,248.92,,,,*77
2026-04-16 04:03:16.517  $TIROT,0.94,A*06
2026-04-16 04:03:16.534  $YXXDR,A,-111.06,D,Yaw,A,-1.50,D,Pitch,A,-0.76,D,Roll*4F
2026-04-16 04:03:16.567  $IIVDR,12.77,T,,M,0.00,N*24
2026-04-16 04:03:16.578  $GPGSV,3,1,12,01,44,309,44,02,66,261,47,03,17,298,47,04,02,239,00*7C
2026-04-16 04:03:16.614  $HCHDG,248.92,,,,*77
2026-04-16 04:03:16.614  $TIROT,0.51,A*0F
2026-04-16 04:03:16.628  $YXXDR,A,-111.07,D,Yaw,A,-1.50,D,Pitch,A,-0.77,D,Roll*4F
2026-04-16 04:03:16.633  !AIVDM,1,1,,A,ENkb;0<Hah@@@@@@@@@@@@@@@@@;Wd6H:ewt000003vP00,4*19
2026-04-16 04:03:16.634  $PGRME,3.8,M,6.6,M,7.6,M*24
2026-04-16 04:03:16.694  $PGRMB,0.0,200,,,,K,,N,W*28
2026-04-16 04:03:16.714  $HCHDG,248.92,,,,*77
2026-04-16 04:03:16.714  $TIROT,-0.55,A*26
2026-04-16 04:03:16.728  $YXXDR,A,-111.07,D,Yaw,A,-1.50,D,Pitch,A,-0.77,D,Roll*4F
2026-04-16 04:03:16.731  $PGRMM,WGS 84*06
2026-04-16 04:03:16.813  $HCHDG,248.92,,,,*77
2026-04-16 04:03:16.813  $TIROT,-2.06,A*22
2026-04-16 04:03:16.832  $YXXDR,A,-111.07,D,Yaw,A,-1.50,D,Pitch,A,-0.77,D,Roll*4F
2026-04-16 04:03:16.854  !AIVDM,1,1,,A,B52mLqh005l:7d5GL6KQ3w`1jADb,0*61
2026-04-16 04:03:16.914  $HCHDG,248.91,,,,*74
2026-04-16 04:03:16.914  $TIROT,-1.99,A*27
2026-04-16 04:03:16.928  $YXXDR,A,-111.07,D,Yaw,A,-1.50,D,Pitch,A,-0.77,D,Roll*4F
2026-04-16 04:03:16.941  !AIVDM,1,1,,A,H52h4W4UCBD9M3W00000001h5220,0*3A
2026-04-16 04:03:17.010  !AIVDO,1,1,,,B52cumP00=l::t5GKvcQ3w`Ql000,0*7A
2026-04-16 04:03:17.014  $HCHDG,248.92,,,,*77
2026-04-16 04:03:17.014  $TIROT,-0.39,A*2C
2026-04-16 04:03:17.030  $YXXDR,A,-111.07,D,Yaw,A,-1.49,D,Pitch,A,-0.77,D,Roll*47
2026-04-16 04:03:17.114  $HCHDG,248.92,,,,*77
2026-04-16 04:03:17.114  $TIROT,-0.85,A*2B
2026-04-16 04:03:17.121  !AIVDM,1,1,,A,H5OD@P4TCBD9NTkG4@oloj000000,0*18
2026-04-16 04:03:17.129  $YXXDR,A,-111.06,D,Yaw,A,-1.50,D,Pitch,A,-0.77,D,Roll*4E
2026-04-16 04:03:17.166  $GPRMC,040317,A,3730.7499,N,12211.6986,W,000.0,020.7,160426,015.0,E*67
2026-04-16 04:03:17.216  $HCHDG,248.93,,,,*76
2026-04-16 04:03:17.218  $TIROT,1.89,A*0B
2026-04-16 04:03:17.231  $YXXDR,A,-111.05,D,Yaw,A,-1.50,D,Pitch,A,-0.77,D,Roll*4D
2026-04-16 04:03:17.311  $GPGGA,040317,3730.7499,N,12211.6986,W,1,10,0.8,-2.8,M,-28.3,M,,*5F
2026-04-16 04:03:17.323  $HCHDG,248.95,,,,*70
2026-04-16 04:03:17.323  $TIROT,2.55,A*09
2026-04-16 04:03:17.328  $YXXDR,A,-111.03,D,Yaw,A,-1.50,D,Pitch,A,-0.77,D,Roll*4B
2026-04-16 04:03:17.414  $HCHDG,248.96,,,,*73
2026-04-16 04:03:17.414  $TIROT,3.43,A*0F
2026-04-16 04:03:17.428  $YXXDR,A,-111.03,D,Yaw,A,-1.49,D,Pitch,A,-0.77,D,Roll*43
2026-04-16 04:03:17.432  $GPGSA,A,3,01,02,03,,08,10,,25,28,31,32,44,1.4,0.8,1.2*3B
2026-04-16 04:03:17.514  $HCHDG,248.96,,,,*73
2026-04-16 04:03:17.514  $TIROT,2.77,A*09
2026-04-16 04:03:17.528  $YXXDR,A,-111.02,D,Yaw,A,-1.48,D,Pitch,A,-0.76,D,Roll*42
2026-04-16 04:03:17.563  $IIVDR,12.77,T,,M,0.00,N*24
2026-04-16 04:03:17.579  $GPGSV,3,2,12,08,11,227,45,10,30,091,46,17,01,329,00,25,03,078,37*7D
2026-04-16 04:03:17.616  $HCHDG,248.97,,,,*72
2026-04-16 04:03:17.616  $TIROT,3.28,A*02
2026-04-16 04:03:17.628  $YXXDR,A,-111.02,D,Yaw,A,-1.48,D,Pitch,A,-0.77,D,Roll*43
2026-04-16 04:03:17.638  $PGRME,3.8,M,6.6,M,7.6,M*24
2026-04-16 04:03:17.700  $PGRMB,0.0,200,,,,K,,N,W*28
2026-04-16 04:03:17.716  $HCHDG,248.97,,,,*72
2026-04-16 04:03:17.716  $TIROT,2.39,A*03
2026-04-16 04:03:17.728  $YXXDR,A,-111.01,D,Yaw,A,-1.48,D,Pitch,A,-0.76,D,Roll*41
2026-04-16 04:03:17.738  $PGRMM,WGS 84*06
2026-04-16 04:03:17.814  $HCHDG,248.98,,,,*7D
2026-04-16 04:03:17.814  $TIROT,2.69,A*06
2026-04-16 04:03:17.831  $YXXDR,A,-111.02,D,Yaw,A,-1.48,D,Pitch,A,-0.77,D,Roll*43
2026-04-16 04:03:17.911  $IIDPT,1.17,,*75
2026-04-16 04:03:17.913  $HCHDG,248.97,,,,*72
2026-04-16 04:03:17.913  $TIROT,1.12,A*09
2026-04-16 04:03:17.928  $YXXDR,A,-111.01,D,Yaw,A,-1.48,D,Pitch,A,-0.77,D,Roll*40
2026-04-16 04:03:17.960  $IIHDG,,,,015,E*16
2026-04-16 04:03:17.984  $IIHDM,,M*0C
2026-04-16 04:03:18.009  !AIVDO,1,1,,,B52cumP00=l::t5GKvkQ3wa1l000,0*13
2026-04-16 04:03:18.014  $IIHDT,,T*0C
2026-04-16 04:03:18.014  $HCHDG,248.98,,,,*7D
2026-04-16 04:03:18.014  $TIROT,0.53,A*0D
2026-04-16 04:03:18.028  $YXXDR,A,-111.01,D,Yaw,A,-1.48,D,Pitch,A,-0.77,D,Roll*40
2026-04-16 04:03:18.054  $IIMTW,90.16,C*2D
2026-04-16 04:03:18.117  $HCHDG,248.98,,,,*7D
2026-04-16 04:03:18.117  $TIROT,-0.09,A*2F
2026-04-16 04:03:18.123  $IIMWD,,T,,M,2.60,N,1.34,M*46
2026-04-16 04:03:18.128  $YXXDR,A,-111.02,D,Yaw,A,-1.47,D,Pitch,A,-0.77,D,Roll*4C
2026-04-16 04:03:18.147  $GPRMC,040318,A,3730.7499,N,12211.6987,W,000.0,020.7,160426,015.0,E*69
2026-04-16 04:03:18.174  $IIMWV,038,R,2.60,N,A*1C
2026-04-16 04:03:18.221  $HCHDG,248.97,,,,*72
2026-04-16 04:03:18.221  $TIROT,-0.86,A*28
2026-04-16 04:03:18.237  $YXXDR,A,-111.02,D,Yaw,A,-1.47,D,Pitch,A,-0.77,D,Roll*4C
2026-04-16 04:03:18.237  $IIRMB,V,,,,,,,,,,,,,N*45
2026-04-16 04:03:18.289  $GPGGA,040318,3730.7499,N,12211.6987,W,1,10,0.8,-2.8,M,-28.3,M,,*51
2026-04-16 04:03:18.292  $IIRMC,,V,,,,,,,,015,E,N*35
2026-04-16 04:03:18.313  $HCHDG,248.97,,,,*72
2026-04-16 04:03:18.313  $TIROT,-0.99,A*26
2026-04-16 04:03:18.328  $YXXDR,A,-111.02,D,Yaw,A,-1.47,D,Pitch,A,-0.76,D,Roll*4D
2026-04-16 04:03:18.359  $IIVHW,,T,,M,0.00,N,0.00,K*55
2026-04-16 04:03:18.412  $GPGSA,A,3,01,02,03,,08,10,,25,28,31,32,44,1.4,0.8,1.2*3B
2026-04-16 04:03:18.414  $HCHDG,248.97,,,,*72
2026-04-16 04:03:18.414  $TIROT,-0.80,A*2E
2026-04-16 04:03:18.417  !AIVDM,1,1,,B,E>kb9N9Ph@@@@@@@@@@@@@@@@@@;WpI0:kv2000003vP10,4*71
2026-04-16 04:03:18.423  $IIVLW,5768.51,N,5768.51,N*4D
2026-04-16 04:03:18.428  $YXXDR,A,-111.01,D,Yaw,A,-1.47,D,Pitch,A,-0.76,D,Roll*4E
2026-04-16 04:03:18.461  !AIVDM,1,1,,B,15O<nod000o@>M@EWwFPdUTR04P<,0*37
2026-04-16 04:03:18.479  $IIVTG,,T,,M,,N,,K,N*3B
2026-04-16 04:03:18.522  $HCHDG,248.99,,,,*7C
2026-04-16 04:03:18.522  $TIROT,1.52,A*0D
2026-04-16 04:03:18.530  $YXXDR,A,-110.99,D,Yaw,A,-1.47,D,Pitch,A,-0.76,D,Roll*4E
2026-04-16 04:03:18.558  $GPGSV,3,3,12,28,55,127,48,31,37,166,48,32,50,042,48,44,46,171,48*74
2026-04-16 04:03:18.565  $IIVDR,12.77,T,,M,0.00,N*24
2026-04-16 04:03:18.614  $HCHDG,248.99,,,,*7C
2026-04-16 04:03:18.614  $TIROT,2.09,A*00
2026-04-16 04:03:18.617  $PGRME,3.8,M,6.6,M,7.6,M*24
2026-04-16 04:03:18.628  $YXXDR,A,-111.00,D,Yaw,A,-1.47,D,Pitch,A,-0.76,D,Roll*4F
2026-04-16 04:03:18.680  $PGRMB,0.0,200,,,,K,,N,W*28
2026-04-16 04:03:18.728  $HCHDG,248.99,,,,*7C
2026-04-16 04:03:18.728  $TIROT,1.35,A*0C
2026-04-16 04:03:18.728  $PGRMM,WGS 84*06
2026-04-16 04:03:18.735  $YXXDR,A,-111.00,D,Yaw,A,-1.47,D,Pitch,A,-0.76,D,Roll*4F
2026-04-16 04:03:18.815  $HCHDG,248.99,,,,*7C
2026-04-16 04:03:18.815  $TIROT,0.00,A*0B
2026-04-16 04:03:18.828  $YXXDR,A,-111.00,D,Yaw,A,-1.47,D,Pitch,A,-0.76,D,Roll*4F
2026-04-16 04:03:18.917  $HCHDG,248.99,,,,*7C
2026-04-16 04:03:18.917  $TIROT,-0.20,A*24
2026-04-16 04:03:18.928  $YXXDR,A,-111.00,D,Yaw,A,-1.47,D,Pitch,A,-0.77,D,Roll*4E
2026-04-16 04:03:19.009  !AIVDO,1,1,,,B52cumP00=l::t5GKvkQ3waQl000,0*73
2026-04-16 04:03:19.014  $HCHDG,248.99,,,,*7C
2026-04-16 04:03:19.015  $TIROT,-0.04,A*22
2026-04-16 04:03:19.029  $YXXDR,A,-111.00,D,Yaw,A,-1.46,D,Pitch,A,-0.76,D,Roll*4E
2026-04-16 04:03:19.117  $HCHDG,248.99,,,,*7C
2026-04-16 04:03:19.117  $TIROT,-0.32,A*27
2026-04-16 04:03:19.130  $YXXDR,A,-110.98,D,Yaw,A,-1.46,D,Pitch,A,-0.74,D,Roll*4C
2026-04-16 04:03:19.137  $GPRMC,040319,A,3730.7499,N,12211.6987,W,000.0,020.7,160426,015.0,E*68
2026-04-16 04:03:19.214  $HCHDG,249.00,,,,*7D
2026-04-16 04:03:19.214  $TIROT,1.91,A*02
2026-04-16 04:03:19.231  $YXXDR,A,-110.99,D,Yaw,A,-1.46,D,Pitch,A,-0.75,D,Roll*4C
2026-04-16 04:03:19.276  $GPGGA,040319,3730.7499,N,12211.6987,W,1,10,0.8,-2.8,M,-28.3,M,,*50
2026-04-16 04:03:19.295  !AIVDM,1,1,,A,E>kb9J0qch@@@@@@@@@@@@@@@@@;V4B`:fNDP00003vP10,4*40
2026-04-16 04:03:19.313  $HCHDG,249.00,,,,*7D
2026-04-16 04:03:19.313  $TIROT,0.21,A*08
2026-04-16 04:03:19.328  $YXXDR,A,-110.99,D,Yaw,A,-1.46,D,Pitch,A,-0.76,D,Roll*4F
2026-04-16 04:03:19.399  $GPGSA,A,3,01,02,03,,08,10,,25,28,31,32,44,1.4,0.8,1.2*3B
2026-04-16 04:03:19.413  $HCHDG,249.00,,,,*7D
2026-04-16 04:03:19.413  $TIROT,0.93,A*01
2026-04-16 04:03:19.428  $YXXDR,A,-110.98,D,Yaw,A,-1.46,D,Pitch,A,-0.75,D,Roll*4D
2026-04-16 04:03:19.521  $HCHDG,249.01,,,,*7C
2026-04-16 04:03:19.522  $TIROT,2.37,A*0D
2026-04-16 04:03:19.531  $YXXDR,A,-110.97,D,Yaw,A,-1.46,D,Pitch,A,-0.74,D,Roll*43
2026-04-16 04:03:19.548  $GPGSV,3,1,12,01,44,309,44,02,66,261,47,03,17,298,47,04,02,239,00*7C
2026-04-16 04:03:19.569  !AIVDM,1,1,,B,ENkb;0<Hah@@@@@@@@@@@@@@@@@;Wd6H:ewt000003vP00,4*1A
2026-04-16 04:03:19.570  $IIVDR,12.77,T,,M,0.00,N*24
2026-04-16 04:03:19.607  $PGRME,3.8,M,6.6,M,7.6,M*24
2026-04-16 04:03:19.613  $HCHDG,249.02,,,,*7F
2026-04-16 04:03:19.614  $TIROT,1.25,A*0D
2026-04-16 04:03:19.636  $YXXDR,A,-110.98,D,Yaw,A,-1.46,D,Pitch,A,-0.73,D,Roll*4B
2026-04-16 04:03:19.664  $PGRMB,0.0,200,,,,K,,N,W*28
2026-04-16 04:03:19.684  !AIVDM,1,1,,A,15N06LPP0CoC0IPEmktS3i4`2<09,0*3D
2026-04-16 04:03:19.701  $PGRMM,WGS 84*06
2026-04-16 04:03:19.714  $HCHDG,249.01,,,,*7C
2026-04-16 04:03:19.714  $TIROT,0.06,A*0D
2026-04-16 04:03:19.728  $YXXDR,A,-110.98,D,Yaw,A,-1.46,D,Pitch,A,-0.73,D,Roll*4B
2026-04-16 04:03:19.818  $HCHDG,249.01,,,,*7C
2026-04-16 04:03:19.818  $TIROT,-0.80,A*2E
2026-04-16 04:03:19.828  $YXXDR,A,-110.98,D,Yaw,A,-1.46,D,Pitch,A,-0.73,D,Roll*4B
2026-04-16 04:03:19.914  $HCHDG,249.01,,,,*7C
2026-04-16 04:03:19.914  $TIROT,-0.48,A*2A
2026-04-16 04:03:19.928  $YXXDR,A,-110.98,D,Yaw,A,-1.45,D,Pitch,A,-0.72,D,Roll*49
2026-04-16 04:03:20.008  !AIVDO,1,1,,,B52cumP00=l::t5GKvkQ3wb1l000,0*10
2026-04-16 04:03:20.014  $HCHDG,249.01,,,,*7C
2026-04-16 04:03:20.014  $TIROT,-0.93,A*2C
2026-04-16 04:03:20.029  $YXXDR,A,-110.97,D,Yaw,A,-1.42,D,Pitch,A,-0.70,D,Roll*43
2026-04-16 04:03:20.055  !AIVDM,1,1,,A,403Ovk1uJ?T3Do>jO@EdjH?02L5I,0*6B
2026-04-16 04:03:20.113  !AIVDM,1,1,,B,403Ovk1uJ?T3Do>jO@EdjH?02L5I,0*68
2026-04-16 04:03:20.113  $HCHDG,249.02,,,,*7F
2026-04-16 04:03:20.113  $TIROT,0.38,A*00
2026-04-16 04:03:20.128  $YXXDR,A,-110.96,D,Yaw,A,-1.42,D,Pitch,A,-0.70,D,Roll*42
2026-04-16 04:03:20.160  $GPRMC,040320,A,3730.7499,N,12211.6987,W,000.0,020.7,160426,015.0,E*62
2026-04-16 04:03:20.160  !AIVDM,1,1,,A,B52h4W000=l:4H5GKvkQ3wb1nDU:,0*68
2026-04-16 04:03:20.213  $HCHDG,249.03,,,,*7E
2026-04-16 04:03:20.213  $TIROT,1.68,A*04
2026-04-16 04:03:20.229  $YXXDR,A,-110.97,D,Yaw,A,-1.42,D,Pitch,A,-0.71,D,Roll*42
2026-04-16 04:03:20.268  !AIVDM,1,1,,A,403OvkQuJ?T3Do?Uh0Ef=`?02<4Q,0*76
2026-04-16 04:03:20.303  $GPGGA,040320,3730.7499,N,12211.6987,W,1,10,0.8,-2.8,M,-28.3,M,,*5A
2026-04-16 04:03:20.315  $HCHDG,249.03,,,,*7E
2026-04-16 04:03:20.315  $TIROT,-0.72,A*23
2026-04-16 04:03:20.321  !AIVDM,1,1,,A,403Ovl1uJ?T3DoCkkPEpHMg028;v,0*0A
2026-04-16 04:03:20.328  $YXXDR,A,-110.95,D,Yaw,A,-1.42,D,Pitch,A,-0.70,D,Roll*41
2026-04-16 04:03:20.378  !AIVDM,1,1,,B,403Ovl1uJ?T3DoCkkPEpHMg028<0,0*48
2026-04-16 04:03:20.414  $HCHDG,249.04,,,,*79
2026-04-16 04:03:20.414  $TIROT,1.55,A*0A
2026-04-16 04:03:20.425  $GPGSA,A,3,01,02,03,,08,10,,25,28,31,32,44,1.4,0.8,1.2*3B
2026-04-16 04:03:20.428  $YXXDR,A,-110.95,D,Yaw,A,-1.42,D,Pitch,A,-0.71,D,Roll*40
2026-04-16 04:03:20.431  !AIVDM,1,1,,B,15NJQiP018G@8fPEW?93Tjjb0000,0*6C
2026-04-16 04:03:20.489  $IIDPT,1.17,,*75
2026-04-16 04:03:20.515  $HCHDG,249.04,,,,*79
2026-04-16 04:03:20.515  $TIROT,1.58,A*07
2026-04-16 04:03:20.527  $YXXDR,A,-110.95,D,Yaw,A,-1.42,D,Pitch,A,-0.69,D,Roll*49
2026-04-16 04:03:20.542  $IIHDG,,,,015,E*16
2026-04-16 04:03:20.563  $IIVDR,12.77,T,,M,0.00,N*24
2026-04-16 04:03:20.571  $GPGSV,3,2,12,08,11,227,46,10,30,091,46,17,01,329,00,25,03,078,37*7E
2026-04-16 04:03:20.571  $IIHDM,,M*0C
2026-04-16 04:03:20.602  $IIHDT,,T*0C
2026-04-16 04:03:20.614  $HCHDG,249.04,,,,*79
2026-04-16 04:03:20.614  $TIROT,1.23,A*0B
2026-04-16 04:03:20.630  $YXXDR,A,-110.94,D,Yaw,A,-1.42,D,Pitch,A,-0.69,D,Roll*48
2026-04-16 04:03:20.631  !AIVDM,1,1,,A,E>kb9L@r9h@@@@@@@@@@@@@@@@@;W6H@:c>T@00003vP10,4*33
2026-04-16 04:03:20.632  $PGRME,3.8,M,6.6,M,7.6,M*24
2026-04-16 04:03:20.654  $IIMTW,90.16,C*2D
2026-04-16 04:03:20.715  $HCHDG,249.05,,,,*78
2026-04-16 04:03:20.715  $TIROT,2.81,A*00
2026-04-16 04:03:20.716  $IIMWD,,T,,M,2.58,N,1.33,M*4A
2026-04-16 04:03:20.730  $YXXDR,A,-110.93,D,Yaw,A,-1.42,D,Pitch,A,-0.69,D,Roll*4F
2026-04-16 04:03:20.731  $PGRMT,GPS 17-HVS Ver. 3.20,P,P,R,R,P,,15,R*04
2026-04-16 04:03:20.771  $IIMWV,042,T,2.58,N,A*1C
2026-04-16 04:03:20.791  $PGRMB,0.0,200,,,,K,,N,W*28
2026-04-16 04:03:20.821  $HCHDG,249.06,,,,*7B
2026-04-16 04:03:20.821  $TIROT,2.71,A*0F
2026-04-16 04:03:20.829  $YXXDR,A,-110.94,D,Yaw,A,-1.42,D,Pitch,A,-0.69,D,Roll*48
2026-04-16 04:03:20.829  $IIRMB,V,,,,,,,,,,,,,N*45
2026-04-16 04:03:20.829  $PGRMM,WGS 84*06
2026-04-16 04:03:20.890  $IIRMC,,V,,,,,,,,015,E,N*35
2026-04-16 04:03:20.914  $HCHDG,249.05,,,,*78
2026-04-16 04:03:20.915  $TIROT,1.20,A*08
2026-04-16 04:03:20.928  $YXXDR,A,-110.94,D,Yaw,A,-1.42,D,Pitch,A,-0.69,D,Roll*48
2026-04-16 04:03:20.954  $IIVHW,,T,,M,0.00,N,0.00,K*55
2026-04-16 04:03:21.008  !AIVDO,1,1,,,B52cumP00=l::t5GKvkQ3wbQl000,0*70
2026-04-16 04:03:21.014  $HCHDG,249.05,,,,*78
2026-04-16 04:03:21.014  $TIROT,-0.81,A*2F
2026-04-16 04:03:21.021  $IIVLW,5768.51,N,5768.51,N*4D
2026-04-16 04:03:21.028  $YXXDR,A,-110.94,D,Yaw,A,-1.42,D,Pitch,A,-0.69,D,Roll*48
2026-04-16 04:03:21.068  !AIVDM,1,1,,A,403OtVQuJ?T3EoCkl0EpHG?02L2F,0*2B
2026-04-16 04:03:21.072  $IIVTG,,T,,M,,N,,K,N*3B
2026-04-16 04:03:21.114  $HCHDG,249.05,,,,*78
2026-04-16 04:03:21.114  $TIROT,-0.16,A*21
2026-04-16 04:03:21.127  $YXXDR,A,-110.95,D,Yaw,A,-1.43,D,Pitch,A,-0.69,D,Roll*48
2026-04-16 04:03:21.139  $GPRMC,040321,A,3730.7499,N,12211.6987,W,000.0,020.7,160426,015.0,E*63
2026-04-16 04:03:21.219  $HCHDG,249.04,,,,*79
2026-04-16 04:03:21.220  $TIROT,-1.96,A*28
2026-04-16 04:03:21.228  $YXXDR,A,-110.95,D,Yaw,A,-1.43,D,Pitch,A,-0.69,D,Roll*48
2026-04-16 04:03:21.282  $GPGGA,040321,3730.7499,N,12211.6987,W,1,10,0.8,-2.8,M,-28.3,M,,*5B
2026-04-16 04:03:21.314  $HCHDG,249.04,,,,*79
2026-04-16 04:03:21.314  $TIROT,-1.57,A*25
2026-04-16 04:03:21.329  $YXXDR,A,-110.95,D,Yaw,A,-1.43,D,Pitch,A,-0.68,D,Roll*49
2026-04-16 04:03:21.406  $GPGSA,A,3,01,02,03,,08,10,,25,28,31,32,44,1.4,0.8,1.2*3B
2026-04-16 04:03:21.413  $HCHDG,249.04,,,,*79
2026-04-16 04:03:21.416  $TIROT,-1.23,A*26
2026-04-16 04:03:21.428  $YXXDR,A,-110.95,D,Yaw,A,-1.45,D,Pitch,A,-0.68,D,Roll*4F
2026-04-16 04:03:21.494  !AIVDM,1,1,,A,403OtVAuJ?T3Eo?IW0E`4Kg02D46,0*18
2026-04-16 04:03:21.514  $HCHDG,249.04,,,,*79
2026-04-16 04:03:21.514  $TIROT,-1.08,A*2F
2026-04-16 04:03:21.532  $YXXDR,A,-110.95,D,Yaw,A,-1.44,D,Pitch,A,-0.69,D,Roll*4F
2026-04-16 04:03:21.551  $GPGSV,3,3,12,28,55,127,48,31,37,166,48,32,50,042,48,44,46,171,49*75
2026-04-16 04:03:21.568  $IIVDR,12.77,T,,M,0.00,N*24
2026-04-16 04:03:21.610  $PGRME,3.8,M,6.6,M,7.6,M*24
2026-04-16 04:03:21.614  $HCHDG,249.04,,,,*79
2026-04-16 04:03:21.614  $TIROT,-1.53,A*21
2026-04-16 04:03:21.629  $YXXDR,A,-110.94,D,Yaw,A,-1.45,D,Pitch,A,-0.69,D,Roll*4F
2026-04-16 04:03:21.674  $PGRMB,0.0,200,,,,K,,N,W*28
2026-04-16 04:03:21.708  $PGRMM,WGS 84*06
2026-04-16 04:03:21.715  $HCHDG,249.05,,,,*78
2026-04-16 04:03:21.715  $TIROT,0.03,A*08
2026-04-16 04:03:21.728  $YXXDR,A,-110.93,D,Yaw,A,-1.44,D,Pitch,A,-0.69,D,Roll*49
2026-04-16 04:03:21.814  $HCHDG,249.06,,,,*7B
2026-04-16 04:03:21.815  $TIROT,0.78,A*04
2026-04-16 04:03:21.829  $YXXDR,A,-110.93,D,Yaw,A,-1.44,D,Pitch,A,-0.68,D,Roll*48
2026-04-16 04:03:21.917  $HCHDG,249.05,,,,*78
2026-04-16 04:03:21.917  $TIROT,0.01,A*0A
2026-04-16 04:03:21.922  !AIVDM,1,1,,A,403OtUiuJ?T3EG@`?PE?tf700t3d,0*40
2026-04-16 04:03:21.927  $YXXDR,A,-110.94,D,Yaw,A,-1.44,D,Pitch,A,-0.70,D,Roll*46
2026-04-16 04:03:22.010  !AIVDO,1,1,,,B52cumP00=l::t5GKvkQ3wc1l000,0*11
2026-04-16 04:03:22.015  $HCHDG,249.05,,,,*78
2026-04-16 04:03:22.015  $TIROT,-1.37,A*23
2026-04-16 04:03:22.030  $YXXDR,A,-110.94,D,Yaw,A,-1.44,D,Pitch,A,-0.71,D,Roll*47
2026-04-16 04:03:22.114  $HCHDG,249.05,,,,*78
2026-04-16 04:03:22.115  $TIROT,-0.80,A*2E
2026-04-16 04:03:22.130  $YXXDR,A,-110.94,D,Yaw,A,-1.44,D,Pitch,A,-0.71,D,Roll*47
2026-04-16 04:03:22.137  $GPRMC,040322,A,3730.7499,N,12211.6987,W,000.0,020.7,160426,015.0,E*60
2026-04-16 04:03:22.213  $HCHDG,249.05,,,,*78
2026-04-16 04:03:22.213  $TIROT,-0.16,A*21
2026-04-16 04:03:22.228  $YXXDR,A,-110.93,D,Yaw,A,-1.43,D,Pitch,A,-0.72,D,Roll*44
2026-04-16 04:03:22.278  $GPGGA,040322,3730.7499,N,12211.6987,W,1,10,0.8,-2.9,M,-28.3,M,,*59
2026-04-16 04:03:22.318  $HCHDG,249.06,,,,*7B
2026-04-16 04:03:22.318  $TIROT,0.83,A*00
2026-04-16 04:03:22.328  $YXXDR,A,-110.93,D,Yaw,A,-1.43,D,Pitch,A,-0.71,D,Roll*47
2026-04-16 04:03:22.352  !AIVDM,1,1,,B,35N06LPP0DoC0J0EmkvRW0tf21rP,0*06
2026-04-16 04:03:22.401  $GPGSA,A,3,01,02,03,,08,10,,25,28,31,32,44,1.4,0.8,1.2*3B
2026-04-16 04:03:22.414  $HCHDG,249.07,,,,*7A
2026-04-16 04:03:22.414  $TIROT,1.84,A*06
2026-04-16 04:03:22.421  !AIVDM,1,1,,B,ENkb9M>T9@@@@@@@@@@@@@@@@@@;WgTp:lmd000003vP00,4*51
2026-04-16 04:03:22.430  $YXXDR,A,-110.94,D,Yaw,A,-1.43,D,Pitch,A,-0.71,D,Roll*40
2026-04-16 04:03:22.514  $HCHDG,249.05,,,,*78
2026-04-16 04:03:22.516  $TIROT,-0.98,A*27
2026-04-16 04:03:22.527  $YXXDR,A,-110.94,D,Yaw,A,-1.43,D,Pitch,A,-0.72,D,Roll*43
2026-04-16 04:03:22.548  $GPGSV,3,1,12,01,44,309,44,02,66,261,47,03,17,298,47,04,02,239,00*7C
2026-04-16 04:03:22.563  $IIVDR,12.77,T,,M,0.00,N*24
2026-04-16 04:03:22.606  $PGRME,3.8,M,6.6,M,7.6,M*24
2026-04-16 04:03:22.614  $HCHDG,249.05,,,,*78
2026-04-16 04:03:22.614  $TIROT,-1.59,A*2B
2026-04-16 04:03:22.628  $YXXDR,A,-110.94,D,Yaw,A,-1.43,D,Pitch,A,-0.71,D,Roll*40
2026-04-16 04:03:22.670  $PGRMB,0.0,200,,,,K,,N,W*28
2026-04-16 04:03:22.706  $PGRMM,WGS 84*06
2026-04-16 04:03:22.714  $HCHDG,249.05,,,,*78
2026-04-16 04:03:22.715  $TIROT,-1.00,A*27
2026-04-16 04:03:22.728  $YXXDR,A,-110.95,D,Yaw,A,-1.43,D,Pitch,A,-0.72,D,Roll*42
2026-04-16 04:03:22.814  $HCHDG,249.04,,,,*79
2026-04-16 04:03:22.814  $TIROT,-2.94,A*29
2026-04-16 04:03:22.832  $YXXDR,A,-110.95,D,Yaw,A,-1.42,D,Pitch,A,-0.72,D,Roll*43
2026-04-16 04:03:22.913  $HCHDG,249.04,,,,*79
2026-04-16 04:03:22.913  $TIROT,-3.82,A*2F
2026-04-16 04:03:22.928  $YXXDR,A,-110.93,D,Yaw,A,-1.42,D,Pitch,A,-0.72,D,Roll*45
2026-04-16 04:03:23.015  !AIVDO,1,1,,,B52cumP00=l::t5GKvcQ3wcQl000,0*79
2026-04-16 04:03:23.015  $HCHDG,249.07,,,,*7A
2026-04-16 04:03:23.015  $TIROT,0.95,A*07
2026-04-16 04:03:23.031  $YXXDR,A,-110.92,D,Yaw,A,-1.43,D,Pitch,A,-0.72,D,Roll*45
2026-04-16 04:03:23.046  !AIVDM,1,1,,B,B5O6DN0005l:<l5GK`iaWwcUCP06,0*70
2026-04-16 04:03:23.084  $IIDPT,1.08,,*7B
2026-04-16 04:03:23.114  $HCHDG,249.07,,,,*7A
2026-04-16 04:03:23.114  $TIROT,1.62,A*0E
2026-04-16 04:03:23.132  $YXXDR,A,-110.91,D,Yaw,A,-1.42,D,Pitch,A,-0.72,D,Roll*47
2026-04-16 04:03:23.144  $IIHDG,,,,015,E*16
2026-04-16 04:03:23.152  $GPRMC,040323,A,3730.7499,N,12211.6988,W,000.0,020.7,160426,015.0,E*6E
2026-04-16 04:03:23.170  $IIHDM,,M*0C
2026-04-16 04:03:23.199  $IIHDT,,T*0C
2026-04-16 04:03:23.214  $HCHDG,249.08,,,,*75
2026-04-16 04:03:23.215  $TIROT,2.40,A*0D
2026-04-16 04:03:23.230  $YXXDR,A,-110.91,D,Yaw,A,-1.42,D,Pitch,A,-0.72,D,Roll*47
2026-04-16 04:03:23.238  $IIMTW,89.73,C*26
2026-04-16 04:03:23.296  !AIVDM,1,1,,A,E>kb9Ihq;h@@@@@@@@@@@@@@@@@;VG`0:gGS000003vP10,4*3D
2026-04-16 04:03:23.296  $GPGGA,040323,3730.7499,N,12211.6988,W,1,10,0.8,-2.9,M,-28.3,M,,*57
2026-04-16 04:03:23.314  $IIMWD,,T,,M,2.35,N,1.21,M*42
2026-04-16 04:03:23.314  $HCHDG,249.08,,,,*75
2026-04-16 04:03:23.315  $TIROT,2.34,A*0E
2026-04-16 04:03:23.330  $YXXDR,A,-110.91,D,Yaw,A,-1.42,D,Pitch,A,-0.71,D,Roll*44
2026-04-16 04:03:23.360  $IIMWV,039,R,2.35,N,A*1D
2026-04-16 04:03:23.413  $HCHDG,249.08,,,,*75
2026-04-16 04:03:23.415  $TIROT,1.99,A*0A
2026-04-16 04:03:23.415  $IIRMB,V,,,,,,,,,,,,,N*45
2026-04-16 04:03:23.421  $GPGSA,A,3,01,02,03,,08,10,,25,28,31,32,44,1.4,0.8,1.2*3B
2026-04-16 04:03:23.430  $YXXDR,A,-110.90,D,Yaw,A,-1.42,D,Pitch,A,-0.71,D,Roll*45
2026-04-16 04:03:23.479  $IIRMC,,V,,,,,,,,015,E,N*35
2026-04-16 04:03:23.513  $HCHDG,249.08,,,,*75
2026-04-16 04:03:23.513  $TIROT,1.74,A*09
2026-04-16 04:03:23.528  $YXXDR,A,-110.90,D,Yaw,A,-1.41,D,Pitch,A,-0.71,D,Roll*46
2026-04-16 04:03:23.544  $IIVHW,,T,,M,0.00,N,0.00,K*55
2026-04-16 04:03:23.566  !AIVDM,1,1,,B,E>kb9L@r9h@@@@@@@@@@@@@@@@@;W6H@:c>T@00003vP10,4*30
2026-04-16 04:03:23.566  $IIVDR,12.77,T,,M,0.00,N*24
2026-04-16 04:03:23.566  $GPGSV,3,2,12,08,11,227,46,10,30,091,46,17,01,328,00,25,03,078,37*7F
2026-04-16 04:03:23.608  $IIVLW,5768.51,N,5768.51,N*4D
2026-04-16 04:03:23.616  $HCHDG,249.09,,,,*74
2026-04-16 04:03:23.616  $TIROT,1.33,A*0A
2026-04-16 04:03:23.625  $PGRME,3.8,M,6.5,M,7.6,M*27
2026-04-16 04:03:23.627  $YXXDR,A,-110.89,D,Yaw,A,-1.42,D,Pitch,A,-0.71,D,Roll*4D
2026-04-16 04:03:23.662  $IIVTG,,T,,M,,N,,K,N*3B
2026-04-16 04:03:23.684  $PGRMB,0.0,200,,,,K,,N,W*28
2026-04-16 04:03:23.714  $HCHDG,249.10,,,,*7C
2026-04-16 04:03:23.714  $TIROT,3.17,A*0E
2026-04-16 04:03:23.722  $PGRMM,WGS 84*06
2026-04-16 04:03:23.728  $YXXDR,A,-110.90,D,Yaw,A,-1.42,D,Pitch,A,-0.69,D,Roll*4C
2026-04-16 04:03:23.814  $HCHDG,249.09,,,,*74
2026-04-16 04:03:23.814  $TIROT,0.69,A*04
2026-04-16 04:03:23.827  $YXXDR,A,-110.90,D,Yaw,A,-1.42,D,Pitch,A,-0.69,D,Roll*4C
2026-04-16 04:03:23.914  $HCHDG,249.09,,,,*74
2026-04-16 04:03:23.914  $TIROT,-0.75,A*24
2026-04-16 04:03:23.931  $YXXDR,A,-110.90,D,Yaw,A,-1.41,D,Pitch,A,-0.69,D,Roll*4F
2026-04-16 04:03:24.008  !AIVDO,1,1,,,B52cumP00=l::t5GKvcQ3wd1l000,0*1E
2026-04-16 04:03:24.013  $HCHDG,249.09,,,,*74
2026-04-16 04:03:24.013  $TIROT,0.51,A*0F
2026-04-16 04:03:24.028  $YXXDR,A,-110.90,D,Yaw,A,-1.42,D,Pitch,A,-0.69,D,Roll*4C
2026-04-16 04:03:24.113  $HCHDG,249.08,,,,*75
2026-04-16 04:03:24.114  $TIROT,0.04,A*0F
2026-04-16 04:03:24.129  $YXXDR,A,-110.91,D,Yaw,A,-1.42,D,Pitch,A,-0.68,D,Roll*4C
2026-04-16 04:03:24.136  $GPRMC,040324,A,3730.7499,N,12211.6988,W,000.0,020.7,160426,015.0,E*69
2026-04-16 04:03:24.214  $HCHDG,249.08,,,,*75
2026-04-16 04:03:24.215  $TIROT,-0.33,A*26
2026-04-16 04:03:24.232  $YXXDR,A,-110.90,D,Yaw,A,-1.42,D,Pitch,A,-0.68,D,Roll*4D
2026-04-16 04:03:24.280  $GPGGA,040324,3730.7499,N,12211.6988,W,1,10,0.8,-3.0,M,-28.3,M,,*58
2026-04-16 04:03:24.313  $HCHDG,249.09,,,,*74
2026-04-16 04:03:24.313  $TIROT,1.08,A*02
2026-04-16 04:03:24.331  $YXXDR,A,-110.90,D,Yaw,A,-1.42,D,Pitch,A,-0.68,D,Roll*4D
2026-04-16 04:03:24.405  $GPGSA,A,3,01,02,03,,08,10,,25,28,31,32,44,1.4,0.8,1.2*3B
2026-04-16 04:03:24.414  $HCHDG,249.09,,,,*74
2026-04-16 04:03:24.414  $TIROT,0.59,A*07
2026-04-16 04:03:24.428  $YXXDR,A,-110.89,D,Yaw,A,-1.43,D,Pitch,A,-0.68,D,Roll*44
2026-04-16 04:03:24.514  $HCHDG,249.10,,,,*7C
2026-04-16 04:03:24.514  $TIROT,2.19,A*01
2026-04-16 04:03:24.528  $YXXDR,A,-110.89,D,Yaw,A,-1.42,D,Pitch,A,-0.68,D,Roll*45
2026-04-16 04:03:24.548  $GPGSV,3,3,12,28,55,127,48,31,37,166,48,32,50,042,48,44,46,171,49*75
2026-04-16 04:03:24.562  $IIVDR,12.77,T,,M,0.00,N*24
2026-04-16 04:03:24.609  $PGRME,3.8,M,6.5,M,7.6,M*27
2026-04-16 04:03:24.614  $HCHDG,249.11,,,,*7D
2026-04-16 04:03:24.614  $TIROT,3.45,A*09
2026-04-16 04:03:24.630  $YXXDR,A,-110.89,D,Yaw,A,-1.43,D,Pitch,A,-0.68,D,Roll*44
2026-04-16 04:03:24.632  !AIVDM,1,1,,A,E>kb9Jhqah@@@@@@@@@@@@@@@@@;W?l@:c6h000003vP10,4*2F
2026-04-16 04:03:24.671  $PGRMB,0.0,200,,,,K,,N,W*28
2026-04-16 04:03:24.708  $PGRMM,WGS 84*06
2026-04-16 04:03:24.719  $HCHDG,249.10,,,,*7C
2026-04-16 04:03:24.719  $TIROT,1.54,A*0B
2026-04-16 04:03:24.728  $YXXDR,A,-110.90,D,Yaw,A,-1.43,D,Pitch,A,-0.68,D,Roll*4C
2026-04-16 04:03:24.815  $HCHDG,249.09,,,,*74
2026-04-16 04:03:24.815  $TIROT,0.95,A*07
2026-04-16 04:03:24.829  $YXXDR,A,-110.90,D,Yaw,A,-1.43,D,Pitch,A,-0.68,D,Roll*4C
2026-04-16 04:03:24.914  $HCHDG,249.09,,,,*74
2026-04-16 04:03:24.915  $TIROT,0.50,A*0E
2026-04-16 04:03:24.928  $YXXDR,A,-110.89,D,Yaw,A,-1.43,D,Pitch,A,-0.69,D,Roll*45
2026-04-16 04:03:25.008  !AIVDO,1,1,,,B52cumP00=l::t5GKvcQ3wdQl000,0*7E
2026-04-16 04:03:25.015  $HCHDG,249.10,,,,*7C
2026-04-16 04:03:25.015  $TIROT,1.58,A*07
2026-04-16 04:03:25.036  $YXXDR,A,-110.90,D,Yaw,A,-1.42,D,Pitch,A,-0.69,D,Roll*4C
2026-04-16 04:03:25.116  $HCHDG,249.09,,,,*74
2026-04-16 04:03:25.116  $TIROT,-0.18,A*2F
2026-04-16 04:03:25.128  $YXXDR,A,-110.90,D,Yaw,A,-1.42,D,Pitch,A,-0.68,D,Roll*4D
2026-04-16 04:03:25.137  $GPRMC,040325,A,3730.7499,N,12211.6988,W,000.0,020.7,160426,015.0,E*68
2026-04-16 04:03:25.222  $HCHDG,249.09,,,,*74
2026-04-16 04:03:25.222  $TIROT,0.20,A*09
2026-04-16 04:03:25.228  $YXXDR,A,-110.90,D,Yaw,A,-1.43,D,Pitch,A,-0.68,D,Roll*4C
2026-04-16 04:03:25.278  $GPGGA,040325,3730.7499,N,12211.6988,W,1,10,0.8,-3.0,M,-28.3,M,,*59
2026-04-16 04:03:25.280  !AIVDM,1,1,,B,15NH7eP000o@7>@E`v?f45dj20Rd,0*42
2026-04-16 04:03:25.315  $HCHDG,249.09,,,,*74
2026-04-16 04:03:25.315  $TIROT,-0.45,A*27
2026-04-16 04:03:25.333  $YXXDR,A,-110.90,D,Yaw,A,-1.43,D,Pitch,A,-0.68,D,Roll*4C
2026-04-16 04:03:25.401  $GPGSA,A,3,01,02,03,,08,10,,25,28,31,32,44,1.4,0.8,1.2*3B
2026-04-16 04:03:25.414  $HCHDG,249.09,,,,*74
2026-04-16 04:03:25.414  $TIROT,-0.13,A*24
2026-04-16 04:03:25.417  !AIVDM,1,1,,A,15AkH`0wB7o>@ChE@phVWU>d08>u,0*78
2026-04-16 04:03:25.428  $YXXDR,A,-110.90,D,Yaw,A,-1.42,D,Pitch,A,-0.68,D,Roll*4D
2026-04-16 04:03:25.514  $HCHDG,249.09,,,,*74
2026-04-16 04:03:25.514  $TIROT,0.18,A*02
2026-04-16 04:03:25.529  $YXXDR,A,-110.91,D,Yaw,A,-1.42,D,Pitch,A,-0.68,D,Roll*4C
2026-04-16 04:03:25.551  $GPGSV,3,1,12,01,44,309,44,02,66,261,47,03,17,298,47,04,02,239,00*7C
2026-04-16 04:03:25.571  $IIVDR,12.77,T,,M,0.00,N*24
2026-04-16 04:03:25.607  $PGRME,3.8,M,6.5,M,7.6,M*27
2026-04-16 04:03:25.615  $HCHDG,249.08,,,,*75
2026-04-16 04:03:25.615  $TIROT,-1.26,A*23
2026-04-16 04:03:25.628  $YXXDR,A,-110.91,D,Yaw,A,-1.42,D,Pitch,A,-0.68,D,Roll*4C
2026-04-16 04:03:25.667  $PGRMB,0.0,200,,,,K,,N,W*28
2026-04-16 04:03:25.673  $IIDPT,1.17,,*75
2026-04-16 04:03:25.704  $PGRMM,WGS 84*06
2026-04-16 04:03:25.713  $HCHDG,249.08,,,,*75
2026-04-16 04:03:25.713  $TIROT,-1.80,A*2F
2026-04-16 04:03:25.728  $YXXDR,A,-110.91,D,Yaw,A,-1.43,D,Pitch,A,-0.69,D,Roll*4C
2026-04-16 04:03:25.728  $IIHDG,,,,015,E*16
2026-04-16 04:03:25.756  $IIHDM,,M*0C
2026-04-16 04:03:25.787  $IIHDT,,T*0C
2026-04-16 04:03:25.813  $HCHDG,249.07,,,,*7A
2026-04-16 04:03:25.815  $TIROT,-2.17,A*22
2026-04-16 04:03:25.827  $IIMTW,89.73,C*26
2026-04-16 04:03:25.828  $YXXDR,A,-110.92,D,Yaw,A,-1.43,D,Pitch,A,-0.69,D,Roll*4F
2026-04-16 04:03:25.892  $IIMWD,,T,,M,2.02,N,1.03,M*46
2026-04-16 04:03:25.913  $HCHDG,249.07,,,,*7A
2026-04-16 04:03:25.913  $TIROT,-2.63,A*21
2026-04-16 04:03:25.929  $YXXDR,A,-110.91,D,Yaw,A,-1.42,D,Pitch,A,-0.70,D,Roll*45
2026-04-16 04:03:25.947  $IIMWV,002,T,2.02,N,A*17
2026-04-16 04:03:26.007  $IIRMB,V,,,,,,,,,,,,,N*45
2026-04-16 04:03:26.008  !AIVDO,1,1,,,B52cumP00=l::t5GKvcQ3we1l000,0*1F
2026-04-16 04:03:26.014  $HCHDG,249.08,,,,*75
2026-04-16 04:03:26.015  $TIROT,-0.84,A*2A
2026-04-16 04:03:26.028  $YXXDR,A,-110.91,D,Yaw,A,-1.42,D,Pitch,A,-0.71,D,Roll*44
2026-04-16 04:03:26.065  $IIRMC,,V,,,,,,,,015,E,N*35
2026-04-16 04:03:26.114  $HCHDG,249.08,,,,*75
2026-04-16 04:03:26.114  $TIROT,-0.18,A*2F
2026-04-16 04:03:26.118  $GPRMC,040326,A,3730.7499,N,12211.6988,W,000.0,020.7,160426,015.0,E*6B
2026-04-16 04:03:26.132  $YXXDR,A,-110.90,D,Yaw,A,-1.42,D,Pitch,A,-0.69,D,Roll*4C
2026-04-16 04:03:26.132  $IIVHW,,T,,M,0.00,N,0.00,K*55
2026-04-16 04:03:26.195  $IIVLW,5768.51,N,5768.51,N*4D
2026-04-16 04:03:26.216  $HCHDG,249.09,,,,*74
2026-04-16 04:03:26.217  $TIROT,1.22,A*0A
2026-04-16 04:03:26.227  $YXXDR,A,-110.90,D,Yaw,A,-1.42,D,Pitch,A,-0.69,D,Roll*4C
2026-04-16 04:03:26.247  $IIVTG,,T,,M,,N,,K,N*3B
2026-04-16 04:03:26.260  $GPGGA,040326,3730.7499,N,12211.6988,W,1,10,0.8,-3.0,M,-28.3,M,,*5A
2026-04-16 04:03:26.314  $HCHDG,249.09,,,,*74
2026-04-16 04:03:26.314  $TIROT,1.66,A*0A
2026-04-16 04:03:26.329  $YXXDR,A,-110.90,D,Yaw,A,-1.41,D,Pitch,A,-0.71,D,Roll*46
2026-04-16 04:03:26.385  $GPGSA,A,3,01,02,03,,08,10,,25,28,31,32,44,1.4,0.8,1.2*3B
2026-04-16 04:03:26.414  $HCHDG,249.09,,,,*74
2026-04-16 04:03:26.414  $TIROT,0.74,A*08
2026-04-16 04:03:26.416  !AIVDM,1,1,,B,ENkb:Mdq@@@@@@@@@@@@@@@@@@@;WDhh:kMr@00003vP00,4*12
2026-04-16 04:03:26.436  $YXXDR,A,-110.89,D,Yaw,A,-1.41,D,Pitch,A,-0.71,D,Roll*4E
2026-04-16 04:03:26.514  $HCHDG,249.11,,,,*7D
2026-04-16 04:03:26.514  $TIROT,2.48,A*05
2026-04-16 04:03:26.530  $YXXDR,A,-110.89,D,Yaw,A,-1.41,D,Pitch,A,-0.71,D,Roll*4E
2026-04-16 04:03:26.530  $GPGSV,3,2,12,08,11,227,45,10,30,091,46,17,01,328,00,25,03,078,38*73
2026-04-16 04:03:26.563  $IIVDR,12.77,T,,M,0.00,N*24
2026-04-16 04:03:26.589  $PGRME,3.8,M,6.5,M,7.6,M*27
2026-04-16 04:03:26.613  $HCHDG,249.09,,,,*74
2026-04-16 04:03:26.614  $TIROT,0.91,A*03
2026-04-16 04:03:26.634  $YXXDR,A,-110.90,D,Yaw,A,-1.42,D,Pitch,A,-0.71,D,Roll*45
2026-04-16 04:03:26.649  $PGRMB,0.0,200,,,,K,,N,W*28
2026-04-16 04:03:26.687  $PGRMM,WGS 84*06
2026-04-16 04:03:26.714  $HCHDG,249.09,,,,*74
2026-04-16 04:03:26.714  $TIROT,-1.11,A*27
2026-04-16 04:03:26.731  $YXXDR,A,-110.91,D,Yaw,A,-1.42,D,Pitch,A,-0.71,D,Roll*44
2026-04-16 04:03:26.820  $HCHDG,249.08,,,,*75
2026-04-16 04:03:26.820  $TIROT,-1.56,A*24
2026-04-16 04:03:26.829  $YXXDR,A,-110.91,D,Yaw,A,-1.42,D,Pitch,A,-0.71,D,Roll*44
2026-04-16 04:03:26.917  $HCHDG,249.08,,,,*75
2026-04-16 04:03:26.917  $TIROT,-0.91,A*2E
2026-04-16 04:03:26.927  $YXXDR,A,-110.91,D,Yaw,A,-1.42,D,Pitch,A,-0.69,D,Roll*4D
2026-04-16 04:03:27.011  !AIVDO,1,1,,,B52cumP00=l::t5GKvcQ3weQl000,0*7F
2026-04-16 04:03:27.013  $HCHDG,249.08,,,,*75
2026-04-16 04:03:27.014  $TIROT,-1.70,A*20
2026-04-16 04:03:27.032  $YXXDR,A,-110.91,D,Yaw,A,-1.42,D,Pitch,A,-0.70,D,Roll*45
2026-04-16 04:03:27.070  !AIVDM,1,1,,A,15Ngp6P000G?g>0E`5@9EGA@0h?s,0*42
2026-04-16 04:03:27.116  $HCHDG,249.08,,,,*75
2026-04-16 04:03:27.116  $TIROT,-1.86,A*29
2026-04-16 04:03:27.130  $YXXDR,A,-110.90,D,Yaw,A,-1.42,D,Pitch,A,-0.70,D,Roll*44
2026-04-16 04:03:27.150  $GPRMC,040327,A,3730.7499,N,12211.6988,W,000.0,020.7,160426,015.0,E*6A
2026-04-16 04:03:27.215  $HCHDG,249.09,,,,*74
2026-04-16 04:03:27.215  $TIROT,0.72,A*0E
2026-04-16 04:03:27.228  $YXXDR,A,-110.90,D,Yaw,A,-1.43,D,Pitch,A,-0.71,D,Roll*44
2026-04-16 04:03:27.293  $GPGGA,040327,3730.7499,N,12211.6988,W,1,10,0.8,-3.0,M,-28.3,M,,*5B
2026-04-16 04:03:27.295  !AIVDM,1,1,,A,E>kb9IPpch@@@@@@@@@@@@@@@@@;Vvd0:irtP00003vP10,4*15
2026-04-16 04:03:27.314  $HCHDG,249.09,,,,*74
2026-04-16 04:03:27.314  $TIROT,0.63,A*0E
2026-04-16 04:03:27.328  $YXXDR,A,-110.89,D,Yaw,A,-1.44,D,Pitch,A,-0.71,D,Roll*4B
2026-04-16 04:03:27.416  $HCHDG,249.09,,,,*74
2026-04-16 04:03:27.416  $TIROT,1.69,A*05
2026-04-16 04:03:27.416  $GPGSA,A,3,01,02,03,,08,10,,25,28,31,32,44,1.4,0.8,1.2*3B
2026-04-16 04:03:27.427  $YXXDR,A,-110.89,D,Yaw,A,-1.43,D,Pitch,A,-0.71,D,Roll*4C
2026-04-16 04:03:27.515  $HCHDG,249.10,,,,*7C
2026-04-16 04:03:27.516  $TIROT,0.63,A*0E
2026-04-16 04:03:27.528  $YXXDR,A,-110.91,D,Yaw,A,-1.44,D,Pitch,A,-0.70,D,Roll*43
2026-04-16 04:03:27.562  $GPGSV,3,3,12,28,55,127,47,31,37,166,48,32,50,042,48,44,46,171,48*7B
2026-04-16 04:03:27.563  !AIVDM,1,1,,B,E>kb9Jhqah@@@@@@@@@@@@@@@@@;W?l@:c6h000003vP10,4*2C
2026-04-16 04:03:27.563  $IIVDR,12.77,T,,M,0.00,N*24
2026-04-16 04:03:27.614  $HCHDG,249.08,,,,*75
2026-04-16 04:03:27.614  $TIROT,-1.93,A*2D
2026-04-16 04:03:27.621  $PGRME,3.8,M,6.5,M,7.6,M*27
2026-04-16 04:03:27.628  $YXXDR,A,-110.91,D,Yaw,A,-1.45,D,Pitch,A,-0.72,D,Roll*40
2026-04-16 04:03:27.655  !AIVDM,1,1,,A,15O0kl0P4Qo?i3hEabF6`UJj04P<,0*76
2026-04-16 04:03:27.685  $PGRMB,0.0,200,,,,K,,N,W*28
2026-04-16 04:03:27.717  $HCHDG,249.08,,,,*75
2026-04-16 04:03:27.717  $TIROT,-1.95,A*2B
2026-04-16 04:03:27.717  $PGRMM,WGS 84*06
2026-04-16 04:03:27.728  $YXXDR,A,-110.92,D,Yaw,A,-1.44,D,Pitch,A,-0.72,D,Roll*42
2026-04-16 04:03:27.815  $HCHDG,249.07,,,,*7A
2026-04-16 04:03:27.815  $TIROT,-2.92,A*2F
2026-04-16 04:03:27.829  $YXXDR,A,-110.93,D,Yaw,A,-1.43,D,Pitch,A,-0.72,D,Roll*44
2026-04-16 04:03:27.914  $HCHDG,249.07,,,,*7A
2026-04-16 04:03:27.915  $TIROT,-2.83,A*2F
2026-04-16 04:03:27.929  $YXXDR,A,-110.93,D,Yaw,A,-1.43,D,Pitch,A,-0.73,D,Roll*45
2026-04-16 04:03:28.008  !AIVDO,1,1,,,B52cumP00=l::t5GKvcQ3wf1l000,0*1C
2026-04-16 04:03:28.014  $HCHDG,249.06,,,,*7B
2026-04-16 04:03:28.014  $TIROT,-2.92,A*2F
2026-04-16 04:03:28.028  $YXXDR,A,-110.93,D,Yaw,A,-1.43,D,Pitch,A,-0.73,D,Roll*45
2026-04-16 04:03:28.114  $HCHDG,249.06,,,,*7B
2026-04-16 04:03:28.114  $TIROT,-2.17,A*22
2026-04-16 04:03:28.128  $YXXDR,A,-110.94,D,Yaw,A,-1.43,D,Pitch,A,-0.73,D,Roll*42
2026-04-16 04:03:28.140  $GPRMC,040328,A,3730.7499,N,12211.6988,W,000.0,020.7,160426,015.0,E*65
2026-04-16 04:03:28.213  $HCHDG,249.05,,,,*78
2026-04-16 04:03:28.213  $TIROT,-3.42,A*23
2026-04-16 04:03:28.228  $YXXDR,A,-110.94,D,Yaw,A,-1.42,D,Pitch,A,-0.75,D,Roll*45
2026-04-16 04:03:28.260  $IIDPT,1.08,,*7B
2026-04-16 04:03:28.269  !AIVDM,1,1,,A,15O<nod000o@>MPEWwH0dUTn00S@,0*0D
2026-04-16 04:03:28.282  $GPGGA,040328,3730.7499,N,12211.6988,W,1,10,0.8,-3.0,M,-28.3,M,,*54
2026-04-16 04:03:28.306  $IIHDG,,,,015,E*16
2026-04-16 04:03:28.313  $HCHDG,249.05,,,,*78
2026-04-16 04:03:28.314  $TIROT,-2.72,A*21
2026-04-16 04:03:28.327  $YXXDR,A,-110.94,D,Yaw,A,-1.43,D,Pitch,A,-0.74,D,Roll*45
2026-04-16 04:03:28.335  $IIHDM,,M*0C
2026-04-16 04:03:28.366  $IIHDT,,T*0C
2026-04-16 04:03:28.407  $GPGSA,A,3,01,02,03,,08,10,,25,28,31,32,44,1.4,0.8,1.2*3B
2026-04-16 04:03:28.407  $IIMTW,89.73,C*26
2026-04-16 04:03:28.414  $HCHDG,249.05,,,,*78
2026-04-16 04:03:28.414  $TIROT,-2.89,A*25
2026-04-16 04:03:28.429  $YXXDR,A,-110.94,D,Yaw,A,-1.42,D,Pitch,A,-0.74,D,Roll*44
2026-04-16 04:03:28.474  $IIMWD,,T,,M,2.13,N,1.10,M*44
2026-04-16 04:03:28.509  !AIVDM,1,1,,A,152OTMhP00o?kO0ES@hf4?vp2D0p,0*59
2026-04-16 04:03:28.512  $HCHDG,249.05,,,,*78
2026-04-16 04:03:28.513  $TIROT,-2.98,A*25
2026-04-16 04:03:28.528  $IIMWV,008,R,2.13,N,A*1B
2026-04-16 04:03:28.528  $YXXDR,A,-110.94,D,Yaw,A,-1.41,D,Pitch,A,-0.74,D,Roll*47
2026-04-16 04:03:28.552  $GPGSV,3,1,12,01,44,309,44,02,66,261,47,03,17,298,47,04,02,239,00*7C
2026-04-16 04:03:28.566  $IIVDR,12.77,T,,M,0.00,N*24
2026-04-16 04:03:28.582  $IIRMB,V,,,,,,,,,,,,,N*45
2026-04-16 04:03:28.611  $PGRME,3.8,M,6.5,M,7.6,M*27
2026-04-16 04:03:28.612  $HCHDG,249.05,,,,*78
2026-04-16 04:03:28.613  $TIROT,-2.82,A*2E
2026-04-16 04:03:28.627  $YXXDR,A,-110.93,D,Yaw,A,-1.41,D,Pitch,A,-0.75,D,Roll*41
2026-04-16 04:03:28.632  !AIVDM,1,1,,A,ENkb;0<Hah@@@@@@@@@@@@@@@@@;Wd6H:ewt000003vP00,4*19
2026-04-16 04:03:28.644  $IIRMC,,V,,,,,,,,015,E,N*35
2026-04-16 04:03:28.670  $PGRMB,0.0,200,,,,K,,N,W*28
2026-04-16 04:03:28.699  !AIVDM,1,1,,A,B52PoeP005l:E`5GKnQ5swf5CP06,0*5E
2026-04-16 04:03:28.709  $PGRMM,WGS 84*06
2026-04-16 04:03:28.710  $IIVHW,,T,,M,0.00,N,0.00,K*55
2026-04-16 04:03:28.715  $HCHDG,249.07,,,,*7A
2026-04-16 04:03:28.715  $TIROT,0.13,A*09
2026-04-16 04:03:28.727  $YXXDR,A,-110.93,D,Yaw,A,-1.40,D,Pitch,A,-0.76,D,Roll*43
2026-04-16 04:03:28.778  $IIVLW,5768.51,N,5768.51,N*4D
2026-04-16 04:03:28.813  $HCHDG,249.07,,,,*7A
2026-04-16 04:03:28.814  $TIROT,-0.56,A*25
2026-04-16 04:03:28.829  $IIVTG,,T,,M,,N,,K,N*3B
2026-04-16 04:03:28.829  $YXXDR,A,-110.93,D,Yaw,A,-1.41,D,Pitch,A,-0.76,D,Roll*42
2026-04-16 04:03:28.912  $HCHDG,249.07,,,,*7A
2026-04-16 04:03:28.913  $TIROT,-2.54,A*25
2026-04-16 04:03:28.932  $YXXDR,A,-110.92,D,Yaw,A,-1.41,D,Pitch,A,-0.78,D,Roll*4D
2026-04-16 04:03:29.008  !AIVDO,1,1,,,B52cumP00=l::t5GKvcQ3wfQl000,0*7C
2026-04-16 04:03:29.017  $HCHDG,249.07,,,,*7A
2026-04-16 04:03:29.017  $TIROT,-1.14,A*22
2026-04-16 04:03:29.028  $YXXDR,A,-110.92,D,Yaw,A,-1.40,D,Pitch,A,-0.79,D,Roll*4D
2026-04-16 04:03:29.117  $HCHDG,249.07,,,,*7A
2026-04-16 04:03:29.117  $TIROT,-2.01,A*25
2026-04-16 04:03:29.127  $YXXDR,A,-110.91,D,Yaw,A,-1.40,D,Pitch,A,-0.79,D,Roll*4E
2026-04-16 04:03:29.158  $GPRMC,040329,A,3730.7499,N,12211.6988,W,000.0,020.7,160426,015.0,E*64
2026-04-16 04:03:29.215  $HCHDG,249.08,,,,*75
2026-04-16 04:03:29.216  $TIROT,-0.89,A*27
2026-04-16 04:03:29.227  $YXXDR,A,-110.91,D,Yaw,A,-1.41,D,Pitch,A,-0.78,D,Roll*4E
2026-04-16 04:03:29.304  $GPGGA,040329,3730.7499,N,12211.6988,W,1,10,0.8,-3.0,M,-28.3,M,,*55
2026-04-16 04:03:29.314  $HCHDG,249.08,,,,*75
2026-04-16 04:03:29.314  $TIROT,-0.96,A*29
2026-04-16 04:03:29.328  $YXXDR,A,-110.91,D,Yaw,A,-1.40,D,Pitch,A,-0.77,D,Roll*40
2026-04-16 04:03:29.420  $HCHDG,249.08,,,,*75
2026-04-16 04:03:29.420  $TIROT,-1.25,A*20
2026-04-16 04:03:29.423  $GPGSA,A,3,01,02,03,,08,10,,25,28,31,32,44,1.4,0.8,1.2*3B
2026-04-16 04:03:29.429  $YXXDR,A,-110.90,D,Yaw,A,-1.39,D,Pitch,A,-0.77,D,Roll*4F
2026-04-16 04:03:29.514  $HCHDG,249.09,,,,*74
2026-04-16 04:03:29.514  $TIROT,-0.58,A*2B
2026-04-16 04:03:29.530  $YXXDR,A,-110.91,D,Yaw,A,-1.39,D,Pitch,A,-0.76,D,Roll*4F
2026-04-16 04:03:29.563  $IIVDR,12.77,T,,M,0.00,N*24
2026-04-16 04:03:29.570  $GPGSV,3,2,12,08,11,227,45,10,30,091,46,17,01,328,00,25,03,078,38*73
2026-04-16 04:03:29.613  $HCHDG,249.08,,,,*75
2026-04-16 04:03:29.614  $TIROT,-2.03,A*27
2026-04-16 04:03:29.632  $YXXDR,A,-110.90,D,Yaw,A,-1.38,D,Pitch,A,-0.77,D,Roll*4E
2026-04-16 04:03:29.632  $PGRME,3.8,M,6.5,M,7.6,M*27
2026-04-16 04:03:29.689  $PGRMB,0.0,200,,,,K,,N,W*28
2026-04-16 04:03:29.715  $HCHDG,249.09,,,,*74
2026-04-16 04:03:29.715  $TIROT,-1.27,A*22
2026-04-16 04:03:29.729  $YXXDR,A,-110.90,D,Yaw,A,-1.39,D,Pitch,A,-0.76,D,Roll*4E
2026-04-16 04:03:29.729  $PGRMM,WGS 84*06
2026-04-16 04:03:29.813  $HCHDG,249.09,,,,*74
2026-04-16 04:03:29.813  $TIROT,0.35,A*0D
2026-04-16 04:03:29.827  $YXXDR,A,-110.90,D,Yaw,A,-1.40,D,Pitch,A,-0.77,D,Roll*41
2026-04-16 04:03:29.915  $HCHDG,249.09,,,,*74
2026-04-16 04:03:29.916  $TIROT,-0.20,A*24
2026-04-16 04:03:29.929  $YXXDR,A,-110.90,D,Yaw,A,-1.40,D,Pitch,A,-0.77,D,Roll*41
2026-04-16 04:03:30.010  !AIVDO,1,1,,,B52cumP00=l::t5GKvcQ3wg1l000,0*1D
2026-04-16 04:03:30.012  $HCHDG,249.09,,,,*74
2026-04-16 04:03:30.012  $TIROT,-1.43,A*20
2026-04-16 04:03:30.027  $YXXDR,A,-110.89,D,Yaw,A,-1.40,D,Pitch,A,-0.78,D,Roll*46
2026-04-16 04:03:30.117  $HCHDG,249.10,,,,*7C
2026-04-16 04:03:30.117  $TIROT,-0.07,A*21
2026-04-16 04:03:30.128  $YXXDR,A,-110.89,D,Yaw,A,-1.40,D,Pitch,A,-0.77,D,Roll*49
2026-04-16 04:03:30.153  $GPRMC,040330,A,3730.7498,N,12211.6989,W,000.0,020.7,160426,015.0,E*6C
2026-04-16 04:03:30.214  $HCHDG,249.10,,,,*7C
2026-04-16 04:03:30.214  $TIROT,0.13,A*09
2026-04-16 04:03:30.228  $YXXDR,A,-110.89,D,Yaw,A,-1.41,D,Pitch,A,-0.78,D,Roll*47
2026-04-16 04:03:30.290  $GPGGA,040330,3730.7498,N,12211.6989,W,1,10,0.8,-2.9,M,-28.3,M,,*55
2026-04-16 04:03:30.313  $HCHDG,249.10,,,,*7C
2026-04-16 04:03:30.313  $TIROT,-0.64,A*24
2026-04-16 04:03:30.330  $YXXDR,A,-110.89,D,Yaw,A,-1.40,D,Pitch,A,-0.77,D,Roll*49
2026-04-16 04:03:30.413  $GPGSA,A,3,01,02,03,,08,10,,25,28,31,32,44,1.4,0.8,1.2*3B
2026-04-16 04:03:30.413  $HCHDG,249.11,,,,*7D
2026-04-16 04:03:30.413  $TIROT,-0.41,A*23
2026-04-16 04:03:30.420  !AIVDM,1,1,,B,E>kb9KPs7@@@@@@@@@@@@@@@@@@;Vu`8:lJM@00003vP10,4*70
2026-04-16 04:03:30.428  $YXXDR,A,-110.89,D,Yaw,A,-1.40,D,Pitch,A,-0.77,D,Roll*49
2026-04-16 04:03:30.515  $HCHDG,249.11,,,,*7D
2026-04-16 04:03:30.516  $TIROT,0.00,A*0B
2026-04-16 04:03:30.527  $YXXDR,A,-110.88,D,Yaw,A,-1.39,D,Pitch,A,-0.77,D,Roll*46
2026-04-16 04:03:30.560  $GPGSV,3,3,12,28,55,127,47,31,37,166,48,32,50,042,48,44,46,171,49*7A
2026-04-16 04:03:30.562  $IIVDR,12.77,T,,M,0.00,N*24
2026-04-16 04:03:30.613  $HCHDG,249.11,,,,*7D
2026-04-16 04:03:30.613  $TIROT,-0.02,A*24
2026-04-16 04:03:30.622  $PGRME,3.8,M,6.5,M,7.6,M*27
2026-04-16 04:03:30.628  $YXXDR,A,-110.89,D,Yaw,A,-1.39,D,Pitch,A,-0.77,D,Roll*47
2026-04-16 04:03:30.678  $PGRMB,0.0,200,,,,K,,N,W*28
2026-04-16 04:03:30.714  $HCHDG,249.10,,,,*7C
2026-04-16 04:03:30.715  $TIROT,-2.07,A*23
2026-04-16 04:03:30.715  $PGRMM,WGS 84*06
2026-04-16 04:03:30.730  $YXXDR,A,-110.90,D,Yaw,A,-1.38,D,Pitch,A,-0.77,D,Roll*4E
2026-04-16 04:03:30.815  $HCHDG,249.09,,,,*74
2026-04-16 04:03:30.815  $TIROT,-2.10,A*25
2026-04-16 04:03:30.828  $YXXDR,A,-110.89,D,Yaw,A,-1.38,D,Pitch,A,-0.78,D,Roll*49
2026-04-16 04:03:30.839  $IIDPT,1.08,,*7B
2026-04-16 04:03:30.892  $IIHDG,,,,015,E*16
2026-04-16 04:03:30.912  $HCHDG,249.10,,,,*7C
2026-04-16 04:03:30.912  $TIROT,-2.26,A*20
2026-04-16 04:03:30.922  $IIHDM,,M*0C
2026-04-16 04:03:30.927  $YXXDR,A,-110.89,D,Yaw,A,-1.37,D,Pitch,A,-0.77,D,Roll*49
2026-04-16 04:03:30.953  $IIHDT,,T*0C
2026-04-16 04:03:30.994  $IIMTW,89.73,C*26
2026-04-16 04:03:31.013  !AIVDO,1,1,,,B52cumP00=l::t5GKvcQ3wgQl000,0*7D
2026-04-16 04:03:31.015  $HCHDG,249.10,,,,*7C
2026-04-16 04:03:31.015  $TIROT,-1.22,A*27
2026-04-16 04:03:31.029  $YXXDR,A,-110.88,D,Yaw,A,-1.38,D,Pitch,A,-0.77,D,Roll*47
2026-04-16 04:03:31.063  $IIMWD,,T,,M,2.54,N,1.30,M*45
2026-04-16 04:03:31.112  $IIMWV,019,T,2.60,N,A*19
2026-04-16 04:03:31.117  $HCHDG,249.11,,,,*7D
2026-04-16 04:03:31.117  $TIROT,0.17,A*0D
2026-04-16 04:03:31.128  $YXXDR,A,-110.87,D,Yaw,A,-1.38,D,Pitch,A,-0.77,D,Roll*48
2026-04-16 04:03:31.159  $GPRMC,040331,A,3730.7498,N,12211.6989,W,000.0,020.7,160426,015.0,E*6D
2026-04-16 04:03:31.171  $IIRMB,V,,,,,,,,,,,,,N*45
2026-04-16 04:03:31.177  !AIVDM,1,1,,A,15Nv2UP000o@9q0EW=s3=Ro00@BE,0*62
2026-04-16 04:03:31.212  $HCHDG,249.12,,,,*7E
2026-04-16 04:03:31.213  $TIROT,0.33,A*0B
2026-04-16 04:03:31.227  $YXXDR,A,-110.88,D,Yaw,A,-1.38,D,Pitch,A,-0.77,D,Roll*47
2026-04-16 04:03:31.229  $IIRMC,,V,,,,,,,,015,E,N*35
2026-04-16 04:03:31.297  !AIVDM,1,1,,A,E>kb9Lhs9h@@@@@@@@@@@@@@@@@;W6H@:iND000003vP10,4*00
2026-04-16 04:03:31.297  $IIVHW,,T,,M,0.00,N,0.00,K*55
2026-04-16 04:03:31.298  $GPGGA,040331,3730.7498,N,12211.6989,W,1,10,0.8,-2.9,M,-28.3,M,,*54
2026-04-16 04:03:31.312  $HCHDG,249.11,,,,*7D
2026-04-16 04:03:31.313  $TIROT,-0.27,A*23
2026-04-16 04:03:31.330  $YXXDR,A,-110.88,D,Yaw,A,-1.38,D,Pitch,A,-0.79,D,Roll*49
2026-04-16 04:03:31.363  $IIVLW,5768.51,N,5768.51,N*4D
2026-04-16 04:03:31.413  $IIVTG,,T,,M,,N,,K,N*3B
2026-04-16 04:03:31.413  $HCHDG,249.11,,,,*7D
2026-04-16 04:03:31.413  $TIROT,-1.20,A*25
2026-04-16 04:03:31.419  $GPGSA,A,3,01,02,03,,08,10,,25,28,31,32,44,1.4,0.8,1.2*3B
2026-04-16 04:03:31.427  $YXXDR,A,-110.88,D,Yaw,A,-1.39,D,Pitch,A,-0.79,D,Roll*48
2026-04-16 04:03:31.494  !AIVDM,1,1,,B,403OtVAuJ?T3Oo?IW@E`4Lg02@BQ,0*73
2026-04-16 04:03:31.512  $HCHDG,249.11,,,,*7D
2026-04-16 04:03:31.514  $TIROT,-1.48,A*2B
2026-04-16 04:03:31.534  $YXXDR,A,-110.88,D,Yaw,A,-1.38,D,Pitch,A,-0.80,D,Roll*4F
2026-04-16 04:03:31.563  $IIVDR,12.77,T,,M,0.00,N*24
2026-04-16 04:03:31.565  !AIVDM,1,1,,B,ENkb;0<Hah@@@@@@@@@@@@@@@@@;Wd6H:ewt000003vP00,4*1A
2026-04-16 04:03:31.568  $GPGSV,3,1,12,01,44,309,44,02,66,261,47,03,17,298,48,04,02,239,00*73
2026-04-16 04:03:31.613  $HCHDG,249.11,,,,*7D
2026-04-16 04:03:31.613  $TIROT,-0.31,A*24
2026-04-16 04:03:31.632  $PGRME,3.8,M,6.5,M,7.6,M*27
2026-04-16 04:03:31.633  $YXXDR,A,-110.87,D,Yaw,A,-1.39,D,Pitch,A,-0.80,D,Roll*41
2026-04-16 04:03:31.685  $PGRMB,0.0,200,,,,K,,N,W*28
2026-04-16 04:03:31.716  $HCHDG,249.12,,,,*7E
2026-04-16 04:03:31.716  $TIROT,0.73,A*0F
2026-04-16 04:03:31.722  $PGRMM,WGS 84*06
2026-04-16 04:03:31.727  $YXXDR,A,-110.87,D,Yaw,A,-1.40,D,Pitch,A,-0.80,D,Roll*4F
2026-04-16 04:03:31.788  !AIVDM,1,1,,A,15O0kl004Qo?i5hEaa7VbmJr0@Bd,0*1E
2026-04-16 04:03:31.812  $HCHDG,249.12,,,,*7E
2026-04-16 04:03:31.812  $TIROT,-1.08,A*2F
2026-04-16 04:03:31.829  $YXXDR,A,-110.87,D,Yaw,A,-1.39,D,Pitch,A,-0.80,D,Roll*41
2026-04-16 04:03:31.914  $HCHDG,249.12,,,,*7E
2026-04-16 04:03:31.914  $TIROT,-0.53,A*20
2026-04-16 04:03:31.925  !AIVDM,1,1,,B,403OtUiuJ?T3OG@`?PE?tf700pBi,0*31
2026-04-16 04:03:31.927  $YXXDR,A,-110.87,D,Yaw,A,-1.39,D,Pitch,A,-0.80,D,Roll*41
2026-04-16 04:03:32.010  !AIVDO,1,1,,,B52cumP00=l::t5GKvcQ3wh1l000,0*12
2026-04-16 04:03:32.013  $HCHDG,249.12,,,,*7E
2026-04-16 04:03:32.013  $TIROT,-0.95,A*2A
2026-04-16 04:03:32.029  $YXXDR,A,-110.87,D,Yaw,A,-1.38,D,Pitch,A,-0.81,D,Roll*41
2026-04-16 04:03:32.113  $HCHDG,249.12,,,,*7E
2026-04-16 04:03:32.113  $TIROT,-1.37,A*23
2026-04-16 04:03:32.128  $YXXDR,A,-110.86,D,Yaw,A,-1.38,D,Pitch,A,-0.81,D,Roll*40
2026-04-16 04:03:32.139  $GPRMC,040332,A,3730.7498,N,12211.6989,W,000.0,020.7,160426,015.0,E*6E
2026-04-16 04:03:32.213  $HCHDG,249.13,,,,*7F
2026-04-16 04:03:32.214  $TIROT,-0.32,A*27
2026-04-16 04:03:32.232  $YXXDR,A,-110.86,D,Yaw,A,-1.39,D,Pitch,A,-0.81,D,Roll*41
2026-04-16 04:03:32.281  $GPGGA,040332,3730.7498,N,12211.6989,W,1,10,0.8,-2.8,M,-28.3,M,,*56
2026-04-16 04:03:32.313  $HCHDG,249.13,,,,*7F
2026-04-16 04:03:32.313  $TIROT,0.05,A*0E
2026-04-16 04:03:32.327  $YXXDR,A,-110.86,D,Yaw,A,-1.39,D,Pitch,A,-0.81,D,Roll*41
2026-04-16 04:03:32.407  $GPGSA,A,3,01,02,03,,08,10,,25,28,31,32,44,1.4,0.8,1.2*3B
2026-04-16 04:03:32.414  $HCHDG,249.13,,,,*7F
2026-04-16 04:03:32.414  $TIROT,-0.80,A*2E
2026-04-16 04:03:32.430  $YXXDR,A,-110.86,D,Yaw,A,-1.38,D,Pitch,A,-0.80,D,Roll*41
2026-04-16 04:03:32.515  $HCHDG,249.13,,,,*7F
2026-04-16 04:03:32.515  $TIROT,-1.12,A*24
2026-04-16 04:03:32.528  $YXXDR,A,-110.86,D,Yaw,A,-1.39,D,Pitch,A,-0.81,D,Roll*41
2026-04-16 04:03:32.551  $GPGSV,3,2,12,08,11,227,45,10,30,091,46,17,01,328,00,25,03,078,38*73
2026-04-16 04:03:32.564  $IIVDR,12.77,T,,M,0.00,N*24
2026-04-16 04:03:32.610  $PGRME,3.8,M,6.5,M,7.6,M*27
2026-04-16 04:03:32.613  $HCHDG,249.13,,,,*7F
2026-04-16 04:03:32.613  $TIROT,-2.34,A*23
2026-04-16 04:03:32.628  $YXXDR,A,-110.86,D,Yaw,A,-1.38,D,Pitch,A,-0.81,D,Roll*40
2026-04-16 04:03:32.633  !AIVDM,1,1,,A,E>kb9L@r9h@@@@@@@@@@@@@@@@@;W6H@:c>T@00003vP10,4*33
2026-04-16 04:03:32.670  $PGRMB,0.0,200,,,,K,,N,W*28
2026-04-16 04:03:32.711  $PGRMM,WGS 84*06
2026-04-16 04:03:32.712  $HCHDG,249.13,,,,*7F
2026-04-16 04:03:32.712  $TIROT,-2.31,A*26
2026-04-16 04:03:32.732  $YXXDR,A,-110.86,D,Yaw,A,-1.38,D,Pitch,A,-0.81,D,Roll*40
2026-04-16 04:03:32.813  $HCHDG,249.13,,,,*7F
2026-04-16 04:03:32.813  $TIROT,-1.93,A*2D
2026-04-16 04:03:32.828  $YXXDR,A,-110.86,D,Yaw,A,-1.38,D,Pitch,A,-0.82,D,Roll*43
2026-04-16 04:03:32.829  !AIVDM,1,1,,B,B52lwfh005l:Dl5GL:kQ3wh1jDOJ,0*36
2026-04-16 04:03:32.913  $HCHDG,249.13,,,,*7F
2026-04-16 04:03:32.913  $TIROT,-1.68,A*29
2026-04-16 04:03:32.930  $YXXDR,A,-110.87,D,Yaw,A,-1.38,D,Pitch,A,-0.81,D,Roll*41
2026-04-16 04:03:33.008  !AIVDO,1,1,,,B52cumP00=l::t5GKvcQ3whQl000,0*72
2026-04-16 04:03:33.013  $HCHDG,249.12,,,,*7E
2026-04-16 04:03:33.014  $TIROT,-2.63,A*21
2026-04-16 04:03:33.027  $YXXDR,A,-110.86,D,Yaw,A,-1.38,D,Pitch,A,-0.81,D,Roll*40
2026-04-16 04:03:33.116  $HCHDG,249.13,,,,*7F
2026-04-16 04:03:33.117  $TIROT,-1.64,A*25
2026-04-16 04:03:33.128  $YXXDR,A,-110.86,D,Yaw,A,-1.37,D,Pitch,A,-0.83,D,Roll*4D
2026-04-16 04:03:33.140  $GPRMC,040333,A,3730.7498,N,12211.6989,W,000.0,020.7,160426,015.0,E*6F
2026-04-16 04:03:33.212  $HCHDG,249.13,,,,*7F
2026-04-16 04:03:33.213  $TIROT,-1.50,A*22
2026-04-16 04:03:33.227  $YXXDR,A,-110.85,D,Yaw,A,-1.37,D,Pitch,A,-0.83,D,Roll*4E
2026-04-16 04:03:33.286  $GPGGA,040333,3730.7498,N,12211.6989,W,1,10,0.8,-2.7,M,-28.3,M,,*58
2026-04-16 04:03:33.312  $HCHDG,249.13,,,,*7F
2026-04-16 04:03:33.314  $TIROT,-0.68,A*28
2026-04-16 04:03:33.328  $YXXDR,A,-110.85,D,Yaw,A,-1.37,D,Pitch,A,-0.82,D,Roll*4F
2026-04-16 04:03:33.410  $GPGSA,A,3,01,02,03,,08,10,,25,28,31,32,44,1.4,0.8,1.2*3B
2026-04-16 04:03:33.412  $HCHDG,249.15,,,,*79
2026-04-16 04:03:33.415  $TIROT,0.26,A*0F
2026-04-16 04:03:33.426  $IIDPT,1.17,,*75
2026-04-16 04:03:33.428  $YXXDR,A,-110.83,D,Yaw,A,-1.38,D,Pitch,A,-0.79,D,Roll*42
2026-04-16 04:03:33.483  $IIHDG,,,,015,E*16
2026-04-16 04:03:33.496  !AIVDM,1,1,,B,15O0kl004Qo?i6@Ea`PVdEJv0D2c,0*09
2026-04-16 04:03:33.511  $IIHDM,,M*0C
2026-04-16 04:03:33.513  $HCHDG,249.16,,,,*7A
2026-04-16 04:03:33.513  $TIROT,1.97,A*04
2026-04-16 04:03:33.530  $YXXDR,A,-110.85,D,Yaw,A,-1.37,D,Pitch,A,-0.79,D,Roll*4B
2026-04-16 04:03:33.539  $IIHDT,,T*0C
2026-04-16 04:03:33.554  $GPGSV,3,3,12,28,55,127,48,31,37,166,48,32,50,042,49,44,46,171,49*74
2026-04-16 04:03:33.564  $IIVDR,12.77,T,,M,0.00,N*24
2026-04-16 04:03:33.583  $IIMTW,89.73,C*26
2026-04-16 04:03:33.610  $PGRME,3.8,M,6.5,M,7.6,M*27
2026-04-16 04:03:33.612  $HCHDG,249.15,,,,*79
2026-04-16 04:03:33.612  $TIROT,-0.77,A*26
2026-04-16 04:03:33.628  $YXXDR,A,-110.84,D,Yaw,A,-1.37,D,Pitch,A,-0.80,D,Roll*4C
2026-04-16 04:03:33.646  $IIMWD,,T,,M,2.48,N,1.27,M*4E
2026-04-16 04:03:33.672  $PGRMB,0.0,200,,,,K,,N,W*28
2026-04-16 04:03:33.701  $IIMWV,002,R,2.48,N,A*1F
2026-04-16 04:03:33.707  $PGRMM,WGS 84*06
2026-04-16 04:03:33.713  $HCHDG,249.15,,,,*79
2026-04-16 04:03:33.714  $TIROT,-0.85,A*2B
2026-04-16 04:03:33.727  $YXXDR,A,-110.83,D,Yaw,A,-1.37,D,Pitch,A,-0.81,D,Roll*4A
2026-04-16 04:03:33.757  $IIRMB,V,,,,,,,,,,,,,N*45
2026-04-16 04:03:33.814  $HCHDG,249.16,,,,*7A
2026-04-16 04:03:33.814  $TIROT,0.44,A*0B
2026-04-16 04:03:33.819  $IIRMC,,V,,,,,,,,015,E,N*35
2026-04-16 04:03:33.826  $YXXDR,A,-110.83,D,Yaw,A,-1.37,D,Pitch,A,-0.80,D,Roll*4B
2026-04-16 04:03:33.884  $IIVHW,,T,,M,0.00,N,0.00,K*55
2026-04-16 04:03:33.913  $HCHDG,249.16,,,,*7A
2026-04-16 04:03:33.913  $TIROT,0.63,A*0E
2026-04-16 04:03:33.928  $YXXDR,A,-110.82,D,Yaw,A,-1.38,D,Pitch,A,-0.80,D,Roll*45
2026-04-16 04:03:33.948  $IIVLW,5768.51,N,5768.51,N*4D
2026-04-16 04:03:34.001  $IIVTG,,T,,M,,N,,K,N*3B
2026-04-16 04:03:34.008  !AIVDO,1,1,,,B52cumP00=l::t5GKvcQ3wi1l000,0*13
2026-04-16 04:03:34.013  $HCHDG,249.16,,,,*7A
2026-04-16 04:03:34.013  $TIROT,0.39,A*01
2026-04-16 04:03:34.027  $YXXDR,A,-110.82,D,Yaw,A,-1.38,D,Pitch,A,-0.80,D,Roll*45
2026-04-16 04:03:34.120  $HCHDG,249.17,,,,*7B
2026-04-16 04:03:34.120  $TIROT,0.80,A*03
2026-04-16 04:03:34.130  $YXXDR,A,-110.82,D,Yaw,A,-1.37,D,Pitch,A,-0.79,D,Roll*4C
2026-04-16 04:03:34.158  $GPRMC,040334,A,3730.7498,N,12211.6989,W,000.0,020.7,160426,015.0,E*68
2026-04-16 04:03:34.215  $HCHDG,249.17,,,,*7B
2026-04-16 04:03:34.215  $TIROT,0.51,A*0F
2026-04-16 04:03:34.229  $YXXDR,A,-110.82,D,Yaw,A,-1.36,D,Pitch,A,-0.80,D,Roll*4B
2026-04-16 04:03:34.299  $GPGGA,040334,3730.7498,N,12211.6989,W,1,10,0.8,-2.6,M,-28.3,M,,*5E
2026-04-16 04:03:34.313  $HCHDG,249.17,,,,*7B
2026-04-16 04:03:34.313  $TIROT,-0.32,A*27
2026-04-16 04:03:34.331  $YXXDR,A,-110.81,D,Yaw,A,-1.38,D,Pitch,A,-0.80,D,Roll*46
2026-04-16 04:03:34.412  $HCHDG,249.19,,,,*75
2026-04-16 04:03:34.412  $TIROT,0.61,A*0C
2026-04-16 04:03:34.416  !AIVDM,1,1,,B,ENkb:f2`7TW:@17W4b0h6:@@@@@;WSE`:lK9@00003vP00,4*1B
2026-04-16 04:03:34.422  $GPGSA,A,3,01,02,03,,08,10,,25,28,31,32,44,1.4,0.8,1.2*3B
2026-04-16 04:03:34.427  $YXXDR,A,-110.81,D,Yaw,A,-1.37,D,Pitch,A,-0.79,D,Roll*4F
2026-04-16 04:03:34.516  $HCHDG,249.18,,,,*74
2026-04-16 04:03:34.517  $TIROT,-0.44,A*26
2026-04-16 04:03:34.529  $YXXDR,A,-110.80,D,Yaw,A,-1.37,D,Pitch,A,-0.80,D,Roll*48
2026-04-16 04:03:34.534  !AIVDM,1,1,,A,15NJQiP018G@8qhEW?7SPBi60000,0*55
2026-04-16 04:03:34.562  $IIVDR,12.77,T,,M,0.00,N*24
2026-04-16 04:03:34.568  $GPGSV,3,1,12,01,44,309,45,02,66,261,47,03,17,298,47,04,02,239,00*7D
2026-04-16 04:03:34.612  $HCHDG,249.19,,,,*75
2026-04-16 04:03:34.613  $TIROT,1.18,A*03
2026-04-16 04:03:34.629  $YXXDR,A,-110.79,D,Yaw,A,-1.36,D,Pitch,A,-0.80,D,Roll*4F
2026-04-16 04:03:34.629  $PGRME,3.8,M,6.5,M,7.6,M*27
2026-04-16 04:03:34.687  $PGRMB,0.0,200,,,,K,,N,W*28
2026-04-16 04:03:34.714  $HCHDG,249.20,,,,*7F
2026-04-16 04:03:34.714  $TIROT,1.23,A*0B
2026-04-16 04:03:34.724  $PGRMM,WGS 84*06
2026-04-16 04:03:34.727  $YXXDR,A,-110.80,D,Yaw,A,-1.36,D,Pitch,A,-0.80,D,Roll*49
2026-04-16 04:03:34.813  $HCHDG,249.19,,,,*75
2026-04-16 04:03:34.813  $TIROT,0.48,A*07
2026-04-16 04:03:34.827  $YXXDR,A,-110.79,D,Yaw,A,-1.36,D,Pitch,A,-0.80,D,Roll*4F
2026-04-16 04:03:34.912  $HCHDG,249.20,,,,*7F
2026-04-16 04:03:34.912  $TIROT,0.97,A*05
2026-04-16 04:03:34.928  $YXXDR,A,-110.79,D,Yaw,A,-1.36,D,Pitch,A,-0.81,D,Roll*4E
2026-04-16 04:03:35.012  !AIVDO,1,1,,,B52cumP00=l::t5GKvcQ3wiQl000,0*73
2026-04-16 04:03:35.013  $HCHDG,249.20,,,,*7F
2026-04-16 04:03:35.013  $TIROT,0.28,A*01
2026-04-16 04:03:35.027  $YXXDR,A,-110.78,D,Yaw,A,-1.36,D,Pitch,A,-0.81,D,Roll*4F
2026-04-16 04:03:35.115  $HCHDG,249.21,,,,*7E
2026-04-16 04:03:35.115  $TIROT,0.85,A*06
2026-04-16 04:03:35.127  $YXXDR,A,-110.78,D,Yaw,A,-1.37,D,Pitch,A,-0.81,D,Roll*4E
2026-04-16 04:03:35.141  $GPRMC,040335,A,3730.7498,N,12211.6989,W,000.0,020.7,160426,015.0,E*69
2026-04-16 04:03:35.213  $HCHDG,249.21,,,,*7E
2026-04-16 04:03:35.213  $TIROT,-0.28,A*2C
2026-04-16 04:03:35.229  $YXXDR,A,-110.78,D,Yaw,A,-1.36,D,Pitch,A,-0.81,D,Roll*4F
2026-04-16 04:03:35.283  $GPGGA,040335,3730.7498,N,12211.6989,W,1,10,0.8,-2.5,M,-28.3,M,,*5C
2026-04-16 04:03:35.296  !AIVDM,1,1,,A,E>kb9LPrah@@@@@@@@@@@@@@@@@;W6H@:faD@00003vP10,4*31
2026-04-16 04:03:35.313  $HCHDG,249.21,,,,*7E
2026-04-16 04:03:35.313  $TIROT,0.34,A*0C
2026-04-16 04:03:35.327  $YXXDR,A,-110.77,D,Yaw,A,-1.37,D,Pitch,A,-0.83,D,Roll*43
2026-04-16 04:03:35.406  $GPGSA,A,3,01,02,03,,08,10,,25,28,31,32,44,1.4,0.8,1.2*3B
2026-04-16 04:03:35.413  $HCHDG,249.22,,,,*7D
2026-04-16 04:03:35.414  $TIROT,1.39,A*00
2026-04-16 04:03:35.430  $YXXDR,A,-110.77,D,Yaw,A,-1.36,D,Pitch,A,-0.83,D,Roll*42
2026-04-16 04:03:35.513  $HCHDG,249.22,,,,*7D
2026-04-16 04:03:35.513  $TIROT,0.59,A*07
