2026-04-16 04:01:34.404  $IIHDM,,M*0C
2026-04-16 04:01:34.418  !AIVDM,1,1,,B,ENkb9M>T9@@@@@@@@@@@@@@@@@@;WgTp:lmd000003vP00,4*51
2026-04-16 04:01:34.418  $GPGSA,A,3,01,02,03,,08,10,,25,28,31,32,44,1.4,0.8,1.1*38
2026-04-16 04:01:34.418  $HCHDG,246.61,,,,*75
2026-04-16 04:01:34.419  $TIROT,-5.64,A*21
2026-04-16 04:01:34.430  !AIVDM,1,1,,A,18I6cd00Q`G>Nu0EMmC0001008D?,0*70
2026-04-16 04:01:34.435  $IIHDT,,T*0C
2026-04-16 04:01:34.438  $YXXDR,A,-113.38,D,Yaw,A,-2.77,D,Pitch,A,-0.72,D,Roll*42
2026-04-16 04:01:34.475  $IIMTW,90.16,C*2D
2026-04-16 04:01:34.520  $HCHDG,246.61,,,,*75
2026-04-16 04:01:34.520  $TIROT,-5.42,A*25
2026-04-16 04:01:34.536  $YXXDR,A,-113.37,D,Yaw,A,-2.77,D,Pitch,A,-0.72,D,Roll*4D
2026-04-16 04:01:34.539  !AIVDM,1,1,,A,15NJQiP01dG@7<PEW@rT9kE608DC,0*2D
2026-04-16 04:01:34.540  $IIMWD,,T,,M,1.63,N,0.84,M*4C
2026-04-16 04:01:34.564  $GPGSV,3,1,12,01,43,310,46,02,66,263,49,03,17,298,38,04,02,239,00*75
2026-04-16 04:01:34.569  $IIVDR,0.00,T,,M,0.00,N*17
2026-04-16 04:01:34.595  $IIMWV,032,R,1.63,N,A*16
2026-04-16 04:01:34.619  $HCHDG,246.62,,,,*76
2026-04-16 04:01:34.619  $TIROT,-4.78,A*2D
2026-04-16 04:01:34.628  $PGRME,3.8,M,6.6,M,7.6,M*24
2026-04-16 04:01:34.636  $YXXDR,A,-113.36,D,Yaw,A,-2.77,D,Pitch,A,-0.72,D,Roll*4C
2026-04-16 04:01:34.652  $IIRMB,V,,,,,,,,,,,,,N*45
2026-04-16 04:01:34.682  $PGRMB,0.0,200,,,,K,,N,W*28
2026-04-16 04:01:34.715  $IIRMC,,V,,,,,,,,015,E,N*35
2026-04-16 04:01:34.721  $HCHDG,246.63,,,,*77
2026-04-16 04:01:34.721  $TIROT,-5.07,A*24
2026-04-16 04:01:34.721  $PGRMM,WGS 84*06
2026-04-16 04:01:34.736  $YXXDR,A,-113.35,D,Yaw,A,-2.77,D,Pitch,A,-0.71,D,Roll*4C
2026-04-16 04:01:34.778  $IIVHW,,T,,M,0.00,N,0.00,K*55
2026-04-16 04:01:34.820  $HCHDG,246.64,,,,*70
2026-04-16 04:01:34.820  $TIROT,-4.09,A*2B
2026-04-16 04:01:34.835  $YXXDR,A,-113.33,D,Yaw,A,-2.76,D,Pitch,A,-0.69,D,Roll*42
2026-04-16 04:01:34.844  $IIVLW,5768.51,N,5768.51,N*4D
2026-04-16 04:01:34.897  $IIVTG,,T,,M,,N,,K,N*3B
2026-04-16 04:01:34.920  $HCHDG,246.66,,,,*72
2026-04-16 04:01:34.920  $TIROT,-1.80,A*2F
2026-04-16 04:01:34.936  $YXXDR,A,-113.32,D,Yaw,A,-2.76,D,Pitch,A,-0.68,D,Roll*42
2026-04-16 04:01:35.012  !AIVDO,1,1,,,B52cumP00=l::t5GKvsQ3wiQl000,0*63
2026-04-16 04:01:35.020  $HCHDG,246.67,,,,*73
2026-04-16 04:01:35.020  $TIROT,-1.23,A*26
2026-04-16 04:01:35.037  $YXXDR,A,-113.32,D,Yaw,A,-2.75,D,Pitch,A,-0.68,D,Roll*41
2026-04-16 04:01:35.096  !AIVDM,1,1,,A,H52PoePlV04lu80000000000000,2*4E
2026-04-16 04:01:35.120  $HCHDG,246.67,,,,*73
2026-04-16 04:01:35.120  $TIROT,-2.59,A*28
2026-04-16 04:01:35.136  $YXXDR,A,-113.32,D,Yaw,A,-2.75,D,Pitch,A,-0.68,D,Roll*41
2026-04-16 04:01:35.141  $GPRMC,040135,A,3730.7509,N,12211.6954,W,000.0,020.7,160426,015.0,E*62
2026-04-16 04:01:35.205  !AIVDM,1,1,,A,H52PoeTUFC@@??F00000000p:320,0*0A
2026-04-16 04:01:35.220  $HCHDG,246.66,,,,*72
2026-04-16 04:01:35.220  $TIROT,-5.35,A*25
2026-04-16 04:01:35.237  $YXXDR,A,-113.32,D,Yaw,A,-2.74,D,Pitch,A,-0.68,D,Roll*40
2026-04-16 04:01:35.282  $GPGGA,040135,3730.7509,N,12211.6954,W,1,10,0.8,-1.9,M,-28.3,M,,*58
2026-04-16 04:01:35.300  !AIVDM,1,1,,A,E>kb9Ihq;h@@@@@@@@@@@@@@@@@;VG`0:gGS000003vP10,4*3D
2026-04-16 04:01:35.319  $HCHDG,246.67,,,,*73
2026-04-16 04:01:35.319  $TIROT,-5.21,A*20
2026-04-16 04:01:35.336  $YXXDR,A,-113.31,D,Yaw,A,-2.73,D,Pitch,A,-0.68,D,Roll*44
2026-04-16 04:01:35.405  $GPGSA,A,3,01,02,03,,08,10,,25,28,31,32,44,1.4,0.8,1.1*38
2026-04-16 04:01:35.420  $HCHDG,246.67,,,,*73
2026-04-16 04:01:35.421  $TIROT,-5.03,A*20
2026-04-16 04:01:35.436  $YXXDR,A,-113.33,D,Yaw,A,-2.73,D,Pitch,A,-0.68,D,Roll*46
2026-04-16 04:01:35.523  $HCHDG,246.66,,,,*72
2026-04-16 04:01:35.523  $TIROT,-7.06,A*27
2026-04-16 04:01:35.536  $YXXDR,A,-113.31,D,Yaw,A,-2.72,D,Pitch,A,-0.68,D,Roll*45
2026-04-16 04:01:35.551  $GPGSV,3,2,12,08,12,228,42,10,30,090,47,17,01,329,00,25,03,079,38*78
2026-04-16 04:01:35.569  !AIVDM,1,1,,B,E>kb9L@r9h@@@@@@@@@@@@@@@@@;W6H@:c>T@00003vP10,4*30
2026-04-16 04:01:35.570  $IIVDR,0.00,T,,M,0.00,N*17
2026-04-16 04:01:35.634  $PGRME,3.8,M,6.6,M,7.6,M*24
2026-04-16 04:01:35.634  $HCHDG,246.68,,,,*7C
2026-04-16 04:01:35.634  $TIROT,-4.76,A*23
2026-04-16 04:01:35.634  !AIVDM,1,1,,B,35N06LP00AoC0A0Emlj`gi78211h,0*4E
2026-04-16 04:01:35.638  $YXXDR,A,-113.31,D,Yaw,A,-2.72,D,Pitch,A,-0.69,D,Roll*44
2026-04-16 04:01:35.670  $PGRMB,0.0,200,,,,K,,N,W*28
2026-04-16 04:01:35.710  $PGRMM,WGS 84*06
2026-04-16 04:01:35.720  $HCHDG,246.68,,,,*7C
2026-04-16 04:01:35.720  $TIROT,-6.48,A*2C
2026-04-16 04:01:35.736  $YXXDR,A,-113.30,D,Yaw,A,-2.72,D,Pitch,A,-0.69,D,Roll*45
2026-04-16 04:01:35.821  $HCHDG,246.68,,,,*7C
2026-04-16 04:01:35.821  $TIROT,-6.65,A*23
2026-04-16 04:01:35.838  $YXXDR,A,-113.31,D,Yaw,A,-2.71,D,Pitch,A,-0.69,D,Roll*47
2026-04-16 04:01:35.920  $HCHDG,246.68,,,,*7C
2026-04-16 04:01:35.920  $TIROT,-7.70,A*26
2026-04-16 04:01:35.936  $YXXDR,A,-113.30,D,Yaw,A,-2.72,D,Pitch,A,-0.71,D,Roll*4C
2026-04-16 04:01:36.010  !AIVDO,1,1,,,B52cumP00=l::t5GKvsQ3wj1l000,0*00
2026-04-16 04:01:36.020  $HCHDG,246.69,,,,*7D
2026-04-16 04:01:36.020  $TIROT,-6.03,A*23
2026-04-16 04:01:36.036  $YXXDR,A,-113.29,D,Yaw,A,-2.72,D,Pitch,A,-0.70,D,Roll*45
2026-04-16 04:01:36.121  $HCHDG,246.70,,,,*75
2026-04-16 04:01:36.121  $TIROT,-5.37,A*27
2026-04-16 04:01:36.136  $YXXDR,A,-113.29,D,Yaw,A,-2.72,D,Pitch,A,-0.71,D,Roll*44
2026-04-16 04:01:36.168  $GPRMC,040136,A,3730.7509,N,12211.6955,W,000.0,020.7,160426,015.0,E*60
2026-04-16 04:01:36.291  $HCHDG,246.70,,,,*75
2026-04-16 04:01:36.291  $TIROT,-6.33,A*20
2026-04-16 04:01:36.291  $YXXDR,A,-113.29,D,Yaw,A,-2.72,D,Pitch,A,-0.71,D,Roll*44
2026-04-16 04:01:36.312  $GPGGA,040136,3730.7509,N,12211.6955,W,1,10,0.8,-2.0,M,-28.3,M,,*50
2026-04-16 04:01:36.324  $HCHDG,246.70,,,,*75
2026-04-16 04:01:36.324  $TIROT,-6.59,A*2C
2026-04-16 04:01:36.430  $YXXDR,A,-113.29,D,Yaw,A,-2.71,D,Pitch,A,-0.71,D,Roll*47
2026-04-16 04:01:36.430  $HCHDG,246.70,,,,*75
2026-04-16 04:01:36.430  $TIROT,-7.18,A*28
2026-04-16 04:01:36.434  $GPGSA,A,3,01,02,03,,08,10,,25,28,31,32,44,1.4,0.8,1.1*38
2026-04-16 04:01:36.436  $YXXDR,A,-113.28,D,Yaw,A,-2.72,D,Pitch,A,-0.69,D,Roll*4C
2026-04-16 04:01:36.456  !AIVDM,1,1,,B,15Ngp6P000G?g>@E`5AaEGAR0t2p,0*68
2026-04-16 04:01:36.521  $HCHDG,246.70,,,,*75
2026-04-16 04:01:36.522  $TIROT,-6.12,A*23
2026-04-16 04:01:36.568  $YXXDR,A,-113.27,D,Yaw,A,-2.72,D,Pitch,A,-0.69,D,Roll*43
2026-04-16 04:01:36.569  $IIVDR,0.00,T,,M,0.00,N*17
2026-04-16 04:01:36.707  $GPGSV,3,3,12,28,55,128,46,31,36,166,45,32,51,042,46,44,46,171,49*77
2026-04-16 04:01:36.707  $HCHDG,246.72,,,,*77
2026-04-16 04:01:36.707  $TIROT,-3.99,A*25
2026-04-16 04:01:36.708  !AIVDM,1,1,,A,E>kb9Jhqah@@@@@@@@@@@@@@@@@;W?l@:c6h000003vP10,4*2F
2026-04-16 04:01:36.708  $YXXDR,A,-113.27,D,Yaw,A,-2.71,D,Pitch,A,-0.68,D,Roll*41
2026-04-16 04:01:36.708  $PGRME,3.8,M,6.6,M,7.6,M*24
2026-04-16 04:01:36.708  $PGRMB,0.0,200,,,,K,,N,W*28
2026-04-16 04:01:36.721  $HCHDG,246.72,,,,*77
2026-04-16 04:01:36.721  $TIROT,-4.20,A*20
2026-04-16 04:01:36.736  $YXXDR,A,-113.27,D,Yaw,A,-2.71,D,Pitch,A,-0.68,D,Roll*41
2026-04-16 04:01:36.737  $PGRMM,WGS 84*06
2026-04-16 04:01:36.884  $HCHDG,246.72,,,,*77
2026-04-16 04:01:36.884  $TIROT,-5.11,A*23
2026-04-16 04:01:36.884  $YXXDR,A,-113.26,D,Yaw,A,-2.70,D,Pitch,A,-0.68,D,Roll*41
2026-04-16 04:01:36.908  $IIDPT,0.78,,*7D
2026-04-16 04:01:36.919  $HCHDG,246.73,,,,*76
2026-04-16 04:01:36.919  $TIROT,-5.44,A*23
2026-04-16 04:01:37.063  $YXXDR,A,-113.26,D,Yaw,A,-2.70,D,Pitch,A,-0.68,D,Roll*41
2026-04-16 04:01:37.063  $IIHDG,,,,015,E*16
2026-04-16 04:01:37.063  $IIHDM,,M*0C
2026-04-16 04:01:37.063  !AIVDO,1,1,,,B52cumP00=l::t5GKvsQ3wjQl000,0*60
2026-04-16 04:01:37.063  $HCHDG,246.72,,,,*77
2026-04-16 04:01:37.063  $TIROT,-5.77,A*23
2026-04-16 04:01:37.063  $IIHDT,,T*0C
2026-04-16 04:01:37.063  $YXXDR,A,-113.26,D,Yaw,A,-2.70,D,Pitch,A,-0.68,D,Roll*41
2026-04-16 04:01:37.071  $IIMTW,90.16,C*2D
2026-04-16 04:01:37.241  $HCHDG,246.73,,,,*76
2026-04-16 04:01:37.241  $TIROT,-5.52,A*24
2026-04-16 04:01:37.241  $IIMWD,,T,,M,2.17,N,1.12,M*42
2026-04-16 04:01:37.241  $YXXDR,A,-113.25,D,Yaw,A,-2.71,D,Pitch,A,-0.68,D,Roll*43
2026-04-16 04:01:37.241  $GPRMC,040137,A,3730.7508,N,12211.6956,W,000.0,020.7,160426,015.0,E*63
2026-04-16 04:01:37.242  $IIMWV,033,T,2.17,N,A*11
2026-04-16 04:01:37.242  $HCHDG,246.75,,,,*70
2026-04-16 04:01:37.242  $TIROT,-3.77,A*25
2026-04-16 04:01:37.242  $YXXDR,A,-113.25,D,Yaw,A,-2.70,D,Pitch,A,-0.69,D,Roll*43
2026-04-16 04:01:37.248  $IIRMB,V,,,,,,,,,,,,,N*45
2026-04-16 04:01:37.283  $GPGGA,040137,3730.7508,N,12211.6956,W,1,10,0.8,-2.2,M,-28.3,M,,*51
2026-04-16 04:01:37.390  !AIVDM,1,1,,B,15O<nod000o@>MPEWwGPdUU80L2V,0*3D
2026-04-16 04:01:37.390  $IIRMC,,V,,,,,,,,015,E,N*35
2026-04-16 04:01:37.390  $HCHDG,246.75,,,,*70
2026-04-16 04:01:37.390  $TIROT,-4.35,A*24
2026-04-16 04:01:37.391  $YXXDR,A,-113.24,D,Yaw,A,-2.69,D,Pitch,A,-0.70,D,Roll*42
2026-04-16 04:01:37.391  $IIVHW,,T,,M,0.00,N,0.00,K*55
2026-04-16 04:01:37.406  $GPGSA,A,3,01,02,03,,08,10,,25,28,31,32,44,1.4,0.8,1.1*38
2026-04-16 04:01:37.420  $HCHDG,246.75,,,,*70
2026-04-16 04:01:37.420  $TIROT,-4.35,A*24
2026-04-16 04:01:37.567  $YXXDR,A,-113.23,D,Yaw,A,-2.69,D,Pitch,A,-0.70,D,Roll*45
2026-04-16 04:01:37.567  $IIVLW,5768.51,N,5768.51,N*4D
2026-04-16 04:01:37.567  $IIVTG,,T,,M,,N,,K,N*3B
2026-04-16 04:01:37.567  $HCHDG,246.76,,,,*73
2026-04-16 04:01:37.568  $TIROT,-3.52,A*22
2026-04-16 04:01:37.568  $YXXDR,A,-113.22,D,Yaw,A,-2.69,D,Pitch,A,-0.69,D,Roll*4C
2026-04-16 04:01:37.568  $GPGSV,3,1,12,01,43,310,46,02,66,263,49,03,17,298,39,04,02,239,00*74
2026-04-16 04:01:37.569  $IIVDR,0.00,T,,M,0.00,N*17
2026-04-16 04:01:37.745  $PGRME,3.8,M,6.6,M,7.6,M*24
2026-04-16 04:01:37.745  $HCHDG,246.77,,,,*72
2026-04-16 04:01:37.745  $TIROT,-3.42,A*23
2026-04-16 04:01:37.745  $YXXDR,A,-113.21,D,Yaw,A,-2.68,D,Pitch,A,-0.69,D,Roll*4E
2026-04-16 04:01:37.746  $PGRMB,0.0,200,,,,K,,N,W*28
2026-04-16 04:01:37.746  $PGRMM,WGS 84*06
2026-04-16 04:01:37.746  $HCHDG,246.77,,,,*72
2026-04-16 04:01:37.746  $TIROT,-3.62,A*21
2026-04-16 04:01:37.746  $YXXDR,A,-113.21,D,Yaw,A,-2.68,D,Pitch,A,-0.69,D,Roll*4E
2026-04-16 04:01:37.923  $HCHDG,246.79,,,,*7C
2026-04-16 04:01:37.923  $TIROT,-3.24,A*23
2026-04-16 04:01:37.923  $YXXDR,A,-113.22,D,Yaw,A,-2.68,D,Pitch,A,-0.69,D,Roll*4D
2026-04-16 04:01:37.923  $HCHDG,246.77,,,,*72
2026-04-16 04:01:37.923  $TIROT,-6.10,A*21
2026-04-16 04:01:37.938  $YXXDR,A,-113.22,D,Yaw,A,-2.69,D,Pitch,A,-0.69,D,Roll*4C
2026-04-16 04:01:38.101  !AIVDM,2,1,2,B,53B=4682>=kDuTLo800LE8B0l4E9<d0000000017Q1WEF=7g0MmDk4hOUDkh,0*2D
2026-04-16 04:01:38.101  !AIVDM,2,2,2,B,Bh000000000,2*0F
2026-04-16 04:01:38.101  !AIVDO,1,1,,,B52cumP00=l::t5GKvsQ3wk1l000,0*01
2026-04-16 04:01:38.101  $HCHDG,246.77,,,,*72
2026-04-16 04:01:38.102  $TIROT,-6.42,A*26
2026-04-16 04:01:38.102  $YXXDR,A,-113.21,D,Yaw,A,-2.69,D,Pitch,A,-0.70,D,Roll*47
2026-04-16 04:01:38.119  $HCHDG,246.79,,,,*7C
2026-04-16 04:01:38.119  $TIROT,-4.27,A*27
2026-04-16 04:01:38.136  $YXXDR,A,-113.21,D,Yaw,A,-2.69,D,Pitch,A,-0.69,D,Roll*4F
2026-04-16 04:01:38.140  $GPRMC,040138,A,3730.7508,N,12211.6957,W,000.0,020.7,160426,015.0,E*6D
2026-04-16 04:01:38.277  $HCHDG,246.79,,,,*7C
2026-04-16 04:01:38.277  $TIROT,-4.42,A*24
2026-04-16 04:01:38.278  $YXXDR,A,-113.21,D,Yaw,A,-2.68,D,Pitch,A,-0.69,D,Roll*4E
2026-04-16 04:01:38.283  $GPGGA,040138,3730.7508,N,12211.6957,W,1,10,0.8,-2.3,M,-28.3,M,,*5E
2026-04-16 04:01:38.320  $HCHDG,246.79,,,,*7C
2026-04-16 04:01:38.321  $TIROT,-4.92,A*29
2026-04-16 04:01:38.457  $YXXDR,A,-113.19,D,Yaw,A,-2.68,D,Pitch,A,-0.70,D,Roll*4D
2026-04-16 04:01:38.458  $GPGSA,A,3,01,02,03,,08,10,,25,28,31,32,44,1.4,0.8,1.1*38
2026-04-16 04:01:38.458  !AIVDM,1,1,,B,ENkb:Mdq@@@@@@@@@@@@@@@@@@@;WDhh:kMr@00003vP00,4*12
2026-04-16 04:01:38.458  $HCHDG,246.80,,,,*7A
2026-04-16 04:01:38.458  $TIROT,-3.22,A*25
2026-04-16 04:01:38.458  $YXXDR,A,-113.19,D,Yaw,A,-2.67,D,Pitch,A,-0.70,D,Roll*42
2026-04-16 04:01:38.634  !AIVDM,1,1,,A,15NJQiP01eG@7A0EW@i48kC>0<2f,0*12
2026-04-16 04:01:38.634  $HCHDG,246.80,,,,*7A
2026-04-16 04:01:38.634  $TIROT,-3.76,A*24
2026-04-16 04:01:38.634  $YXXDR,A,-113.18,D,Yaw,A,-2.66,D,Pitch,A,-0.70,D,Roll*42
2026-04-16 04:01:38.634  $GPGSV,3,2,12,08,12,228,42,10,30,090,47,17,01,329,00,25,03,079,39*79
2026-04-16 04:01:38.634  $IIVDR,0.00,T,,M,0.00,N*17
2026-04-16 04:01:38.634  $PGRME,3.8,M,6.6,M,7.6,M*24
2026-04-16 04:01:38.634  $HCHDG,246.81,,,,*7B
2026-04-16 04:01:38.634  $TIROT,-3.39,A*2F
2026-04-16 04:01:38.636  $YXXDR,A,-113.18,D,Yaw,A,-2.65,D,Pitch,A,-0.70,D,Roll*41
2026-04-16 04:01:38.671  $PGRMB,0.0,200,,,,K,,N,W*28
2026-04-16 04:01:38.812  !AIVDM,1,1,,A,376s5`1000o?u6@EUT19g:Bv0Dg:,0*6C
2026-04-16 04:01:38.812  $PGRMM,WGS 84*06
2026-04-16 04:01:38.812  $HCHDG,246.81,,,,*7B
2026-04-16 04:01:38.812  $TIROT,-5.13,A*21
2026-04-16 04:01:38.812  $YXXDR,A,-113.19,D,Yaw,A,-2.65,D,Pitch,A,-0.69,D,Roll*48
2026-04-16 04:01:38.821  $HCHDG,246.80,,,,*7A
2026-04-16 04:01:38.821  $TIROT,-7.09,A*28
2026-04-16 04:01:38.836  $YXXDR,A,-113.18,D,Yaw,A,-2.65,D,Pitch,A,-0.69,D,Roll*49
2026-04-16 04:01:38.988  $HCHDG,246.81,,,,*7B
2026-04-16 04:01:38.988  $TIROT,-5.67,A*22
2026-04-16 04:01:38.988  $YXXDR,A,-113.17,D,Yaw,A,-2.65,D,Pitch,A,-0.69,D,Roll*46
2026-04-16 04:01:39.010  !AIVDO,1,1,,,B52cumP00=l::t5GKvsQ3wkQl000,0*61
2026-04-16 04:01:39.020  $HCHDG,246.83,,,,*79
2026-04-16 04:01:39.020  $TIROT,-3.69,A*2A
2026-04-16 04:01:39.162  $YXXDR,A,-113.15,D,Yaw,A,-2.65,D,Pitch,A,-0.69,D,Roll*44
2026-04-16 04:01:39.162  $HCHDG,246.84,,,,*7E
2026-04-16 04:01:39.162  $TIROT,-3.57,A*27
2026-04-16 04:01:39.162  $YXXDR,A,-113.15,D,Yaw,A,-2.65,D,Pitch,A,-0.68,D,Roll*45
2026-04-16 04:01:39.162  $GPRMC,040139,A,3730.7508,N,12211.6958,W,000.0,020.7,160426,015.0,E*63
2026-04-16 04:01:39.338  $HCHDG,246.84,,,,*7E
2026-04-16 04:01:39.339  $TIROT,-4.87,A*2D
2026-04-16 04:01:39.339  $YXXDR,A,-113.15,D,Yaw,A,-2.64,D,Pitch,A,-0.68,D,Roll*44
2026-04-16 04:01:39.339  $GPGGA,040139,3730.7508,N,12211.6958,W,1,10,0.8,-2.4,M,-28.3,M,,*57
2026-04-16 04:01:39.339  !AIVDM,1,1,,A,E>kb9IPpch@@@@@@@@@@@@@@@@@;Vvd0:irtP00003vP10,4*15
2026-04-16 04:01:39.339  $HCHDG,246.84,,,,*7E
2026-04-16 04:01:39.339  $TIROT,-4.03,A*21
2026-04-16 04:01:39.339  $YXXDR,A,-113.14,D,Yaw,A,-2.64,D,Pitch,A,-0.68,D,Roll*45
2026-04-16 04:01:39.406  $GPGSA,A,3,01,02,03,,08,10,,25,28,31,32,44,1.4,0.8,1.1*38
2026-04-16 04:01:39.489  $HCHDG,246.85,,,,*7F
2026-04-16 04:01:39.489  $TIROT,-4.63,A*27
2026-04-16 04:01:39.489  $YXXDR,A,-113.13,D,Yaw,A,-2.63,D,Pitch,A,-0.68,D,Roll*45
2026-04-16 04:01:39.489  $IIDPT,0.87,,*7D
2026-04-16 04:01:39.525  $HCHDG,246.86,,,,*7C
2026-04-16 04:01:39.525  $TIROT,-3.28,A*2F
2026-04-16 04:01:39.616  $YXXDR,A,-113.12,D,Yaw,A,-2.62,D,Pitch,A,-0.69,D,Roll*44
2026-04-16 04:01:39.616  $IIHDG,,,,015,E*16
2026-04-16 04:01:39.616  $GPGSV,3,3,12,28,55,128,47,31,36,166,45,32,51,042,46,44,46,171,49*76
2026-04-16 04:01:39.616  !AIVDM,1,1,,B,E>kb9Jhqah@@@@@@@@@@@@@@@@@;W?l@:c6h000003vP10,4*2C
2026-04-16 04:01:39.617  $IIVDR,0.00,T,,M,0.00,N*17
2026-04-16 04:01:39.617  $IIHDM,,M*0C
2026-04-16 04:01:39.617  $IIHDT,,T*0C
2026-04-16 04:01:39.617  $PGRME,3.8,M,6.6,M,7.6,M*24
2026-04-16 04:01:39.619  $HCHDG,246.87,,,,*7D
2026-04-16 04:01:39.620  $TIROT,-3.02,A*27
2026-04-16 04:01:39.637  $YXXDR,A,-113.11,D,Yaw,A,-2.62,D,Pitch,A,-0.69,D,Roll*47
2026-04-16 04:01:39.640  $IIMTW,90.16,C*2D
2026-04-16 04:01:39.740  $PGRMB,0.0,200,,,,K,,N,W*28
2026-04-16 04:01:39.742  $IIMWD,,T,,M,2.60,N,1.34,M*46
2026-04-16 04:01:39.742  $PGRMM,WGS 84*06
2026-04-16 04:01:39.742  $HCHDG,246.88,,,,*72
2026-04-16 04:01:39.742  $TIROT,-2.90,A*2D
2026-04-16 04:01:39.742  $YXXDR,A,-113.11,D,Yaw,A,-2.62,D,Pitch,A,-0.69,D,Roll*47
2026-04-16 04:01:39.760  $IIMWV,038,R,2.60,N,A*1C
2026-04-16 04:01:39.866  $IIRMB,V,,,,,,,,,,,,,N*45
2026-04-16 04:01:39.867  $HCHDG,246.88,,,,*72
2026-04-16 04:01:39.867  $TIROT,-4.10,A*23
2026-04-16 04:01:39.867  $YXXDR,A,-113.11,D,Yaw,A,-2.61,D,Pitch,A,-0.68,D,Roll*45
2026-04-16 04:01:39.878  $IIRMC,,V,,,,,,,,015,E,N*35
2026-04-16 04:01:40.002  $HCHDG,246.88,,,,*72
2026-04-16 04:01:40.002  $TIROT,-3.88,A*25
2026-04-16 04:01:40.002  $YXXDR,A,-113.10,D,Yaw,A,-2.61,D,Pitch,A,-0.68,D,Roll*44
2026-04-16 04:01:40.002  $IIVHW,,T,,M,0.00,N,0.00,K*55
2026-04-16 04:01:40.008  $IIVLW,5768.51,N,5768.51,N*4D
2026-04-16 04:01:40.010  !AIVDO,1,1,,,B52cumP00=l::t5GKvkQ3wl1l000,0*1E
2026-04-16 04:01:40.019  $HCHDG,246.88,,,,*72
2026-04-16 04:01:40.020  $TIROT,-3.92,A*2E
2026-04-16 04:01:40.119  $YXXDR,A,-113.12,D,Yaw,A,-2.62,D,Pitch,A,-0.68,D,Roll*45
2026-04-16 04:01:40.119  !AIVDM,1,1,,A,403Ovk1uJ?T1`o>jOPEdjL?024P4,0*39
2026-04-16 04:01:40.119  $IIVTG,,T,,M,,N,,K,N*3B
2026-04-16 04:01:40.119  !AIVDM,1,1,,B,403Ovk1uJ?T1`o>jOPEdjL?024P4,0*3A
2026-04-16 04:01:40.120  $HCHDG,246.87,,,,*7D
2026-04-16 04:01:40.120  $TIROT,-6.83,A*2B
2026-04-16 04:01:40.135  $YXXDR,A,-113.10,D,Yaw,A,-2.60,D,Pitch,A,-0.68,D,Roll*45
2026-04-16 04:01:40.139  $GPRMC,040140,A,3730.7508,N,12211.6958,W,000.0,020.7,160426,015.0,E*6D
2026-04-16 04:01:40.245  !AIVDM,1,1,,B,15NJQiP01eG@7CPEW@e48SCB08GW,0*7B
2026-04-16 04:01:40.245  $HCHDG,246.89,,,,*73
2026-04-16 04:01:40.245  $TIROT,-4.06,A*24
2026-04-16 04:01:40.245  $YXXDR,A,-113.10,D,Yaw,A,-2.60,D,Pitch,A,-0.68,D,Roll*45
2026-04-16 04:01:40.249  !AIVDM,2,1,3,B,59NSU5p2G;SPCEPCB21<th5:19D862222222221@B@U:F56SNKUDp4iSp888,0*7A
2026-04-16 04:01:40.250  !AIVDM,2,2,3,B,88888888880,2*24
2026-04-16 04:01:40.270  !AIVDM,1,1,,A,403OvkQuJ?T1`o?Uh0Ef=Ug02D4O,0*5B
2026-04-16 04:01:40.281  $GPGGA,040140,3730.7508,N,12211.6958,W,1,10,0.8,-2.5,M,-28.3,M,,*58
2026-04-16 04:01:40.372  $HCHDG,246.89,,,,*73
2026-04-16 04:01:40.372  $TIROT,-3.92,A*2E
2026-04-16 04:01:40.372  !AIVDM,1,1,,A,403Ovl1uJ?T1`oCkl0EpHO?02@Gd,0*07
2026-04-16 04:01:40.372  $YXXDR,A,-113.09,D,Yaw,A,-2.60,D,Pitch,A,-0.69,D,Roll*4C
2026-04-16 04:01:40.376  !AIVDM,1,1,,B,403Ovl1uJ?T1`oCkl0EpHO?02@Gf,0*06
2026-04-16 04:01:40.405  $GPGSA,A,3,01,02,03,,08,10,,25,28,31,32,44,1.4,0.8,1.1*38
2026-04-16 04:01:40.496  $HCHDG,246.90,,,,*7B
2026-04-16 04:01:40.497  $TIROT,-4.47,A*21
2026-04-16 04:01:40.497  $YXXDR,A,-113.09,D,Yaw,A,-2.59,D,Pitch,A,-0.67,D,Roll*48
2026-04-16 04:01:40.520  $HCHDG,246.90,,,,*7B
2026-04-16 04:01:40.520  $TIROT,-4.68,A*2C
2026-04-16 04:01:40.535  $YXXDR,A,-113.08,D,Yaw,A,-2.58,D,Pitch,A,-0.68,D,Roll*47
2026-04-16 04:01:40.628  $GPGSV,3,1,12,01,43,310,46,02,66,263,49,03,17,298,39,04,02,239,00*74
2026-04-16 04:01:40.628  $IIVDR,12.77,T,,M,0.00,N*24
2026-04-16 04:01:40.628  $PGRME,3.8,M,6.6,M,7.6,M*24
2026-04-16 04:01:40.628  $HCHDG,246.91,,,,*7A
2026-04-16 04:01:40.628  $TIROT,-3.86,A*2B
2026-04-16 04:01:40.632  !AIVDM,1,1,,A,ENkb;0<Hah@@@@@@@@@@@@@@@@@;Wd6H:ewt000003vP00,4*19
2026-04-16 04:01:40.635  $YXXDR,A,-113.07,D,Yaw,A,-2.58,D,Pitch,A,-0.67,D,Roll*47
2026-04-16 04:01:40.749  $PGRMB,0.0,200,,,,K,,N,W*28
2026-04-16 04:01:40.749  $PGRMM,WGS 84*06
2026-04-16 04:01:40.749  $HCHDG,246.92,,,,*79
2026-04-16 04:01:40.749  $TIROT,-3.74,A*26
2026-04-16 04:01:40.749  $YXXDR,A,-113.06,D,Yaw,A,-2.58,D,Pitch,A,-0.67,D,Roll*46
2026-04-16 04:01:40.876  $HCHDG,246.93,,,,*78
2026-04-16 04:01:40.876  $TIROT,-3.89,A*24
2026-04-16 04:01:40.876  $YXXDR,A,-113.06,D,Yaw,A,-2.58,D,Pitch,A,-0.67,D,Roll*46
2026-04-16 04:01:41.001  $HCHDG,246.93,,,,*78
2026-04-16 04:01:41.001  $TIROT,-4.06,A*24
2026-04-16 04:01:41.002  $YXXDR,A,-113.05,D,Yaw,A,-2.58,D,Pitch,A,-0.68,D,Roll*4A
2026-04-16 04:01:41.010  !AIVDO,1,1,,,B52cumP00=l::t5GKvkQ3wlQl000,0*7E
2026-04-16 04:01:41.020  $HCHDG,246.94,,,,*7F
2026-04-16 04:01:41.020  $TIROT,-4.28,A*28
2026-04-16 04:01:41.036  $YXXDR,A,-113.05,D,Yaw,A,-2.57,D,Pitch,A,-0.68,D,Roll*45
2026-04-16 04:01:41.127  $HCHDG,246.94,,,,*7F
2026-04-16 04:01:41.127  $TIROT,-4.79,A*2C
2026-04-16 04:01:41.127  $GPRMC,040141,A,3730.7508,N,12211.6959,W,000.0,020.7,160426,015.0,E*6D
2026-04-16 04:01:41.136  $YXXDR,A,-113.05,D,Yaw,A,-2.57,D,Pitch,A,-0.65,D,Roll*48
2026-04-16 04:01:41.253  $HCHDG,246.95,,,,*7E
2026-04-16 04:01:41.253  $TIROT,-4.59,A*2E
2026-04-16 04:01:41.253  $YXXDR,A,-113.03,D,Yaw,A,-2.57,D,Pitch,A,-0.65,D,Roll*4E
2026-04-16 04:01:41.268  $GPGGA,040141,3730.7508,N,12211.6959,W,1,10,0.8,-2.6,M,-28.3,M,,*5B
2026-04-16 04:01:41.380  $HCHDG,246.96,,,,*7D
2026-04-16 04:01:41.380  $TIROT,-3.46,A*27
2026-04-16 04:01:41.380  $YXXDR,A,-113.03,D,Yaw,A,-2.57,D,Pitch,A,-0.65,D,Roll*4E
2026-04-16 04:01:41.392  $GPGSA,A,3,01,02,03,,08,10,,25,28,31,32,44,1.4,0.8,1.1*38
2026-04-16 04:01:41.420  $HCHDG,246.96,,,,*7D
2026-04-16 04:01:41.420  $TIROT,-3.59,A*29
2026-04-16 04:01:41.505  $YXXDR,A,-113.02,D,Yaw,A,-2.57,D,Pitch,A,-0.66,D,Roll*4C
2026-04-16 04:01:41.505  !AIVDM,1,1,,A,403OtVAuJ?T1ao?I`@E`4Bg02L42,0*7C
2026-04-16 04:01:41.519  $HCHDG,246.97,,,,*7C
2026-04-16 04:01:41.519  $TIROT,-3.51,A*21
2026-04-16 04:01:41.535  $YXXDR,A,-113.01,D,Yaw,A,-2.56,D,Pitch,A,-0.67,D,Roll*4F
2026-04-16 04:01:41.537  $GPGSV,3,2,12,08,12,228,42,10,30,090,47,17,01,329,00,25,03,079,41*76
2026-04-16 04:01:41.633  $IIVDR,12.77,T,,M,0.00,N*24
2026-04-16 04:01:41.633  $PGRME,3.8,M,6.6,M,7.6,M*24
2026-04-16 04:01:41.633  $HCHDG,246.98,,,,*73
2026-04-16 04:01:41.633  $TIROT,-2.40,A*20
2026-04-16 04:01:41.636  $YXXDR,A,-113.00,D,Yaw,A,-2.57,D,Pitch,A,-0.68,D,Roll*40
2026-04-16 04:01:41.656  $PGRMB,0.0,200,,,,K,,N,W*28
2026-04-16 04:01:41.759  $PGRMM,WGS 84*06
2026-04-16 04:01:41.759  $HCHDG,246.99,,,,*72
2026-04-16 04:01:41.759  $TIROT,-1.95,A*2B
2026-04-16 04:01:41.759  $YXXDR,A,-112.99,D,Yaw,A,-2.56,D,Pitch,A,-0.68,D,Roll*40
2026-04-16 04:01:41.883  $HCHDG,247.00,,,,*73
2026-04-16 04:01:41.884  $TIROT,-2.24,A*22
2026-04-16 04:01:41.884  $YXXDR,A,-112.99,D,Yaw,A,-2.54,D,Pitch,A,-0.69,D,Roll*43
2026-04-16 04:01:41.919  $HCHDG,247.00,,,,*73
2026-04-16 04:01:41.919  $TIROT,-3.12,A*26
2026-04-16 04:01:41.925  !AIVDM,1,1,,A,403OtUiuJ?T1aG@`?PE?tf700TP4,0*75
2026-04-16 04:01:42.008  $YXXDR,A,-112.98,D,Yaw,A,-2.54,D,Pitch,A,-0.68,D,Roll*43
2026-04-16 04:01:42.010  !AIVDO,1,1,,,B52cumP00=l::t5GKvkQ3wm1l000,0*1F
2026-04-16 04:01:42.019  $HCHDG,247.01,,,,*72
2026-04-16 04:01:42.019  $TIROT,-2.96,A*2B
2026-04-16 04:01:42.037  $YXXDR,A,-112.97,D,Yaw,A,-2.54,D,Pitch,A,-0.68,D,Roll*4C
2026-04-16 04:01:42.134  $IIDPT,0.87,,*7D
2026-04-16 04:01:42.135  $HCHDG,247.01,,,,*72
2026-04-16 04:01:42.135  $TIROT,-2.20,A*26
2026-04-16 04:01:42.135  $IIHDG,,,,015,E*16
2026-04-16 04:01:42.136  $GPRMC,040142,A,3730.7508,N,12211.6960,W,000.0,020.7,160426,015.0,E*64
2026-04-16 04:01:42.142  $YXXDR,A,-112.98,D,Yaw,A,-2.54,D,Pitch,A,-0.68,D,Roll*43
2026-04-16 04:01:42.158  $IIHDM,,M*0C
2026-04-16 04:01:42.263  $IIHDT,,T*0C
2026-04-16 04:01:42.263  $HCHDG,247.01,,,,*72
2026-04-16 04:01:42.263  $TIROT,-5.28,A*29
2026-04-16 04:01:42.263  $YXXDR,A,-112.98,D,Yaw,A,-2.54,D,Pitch,A,-0.67,D,Roll*4C
2026-04-16 04:01:42.263  $IIMTW,90.16,C*2D
2026-04-16 04:01:42.279  $GPGGA,040142,3730.7508,N,12211.6960,W,1,10,0.8,-2.7,M,-28.3,M,,*53
2026-04-16 04:01:42.304  $IIMWD,,T,,M,2.60,N,1.34,M*46
2026-04-16 04:01:42.387  $HCHDG,247.01,,,,*72
2026-04-16 04:01:42.387  $TIROT,-6.51,A*24
2026-04-16 04:01:42.387  $YXXDR,A,-112.99,D,Yaw,A,-2.54,D,Pitch,A,-0.67,D,Roll*4D
2026-04-16 04:01:42.387  $IIMWV,032,T,2.60,N,A*10
2026-04-16 04:01:42.402  $GPGSA,A,3,01,02,03,,08,10,,25,28,31,32,44,1.4,0.8,1.1*38
2026-04-16 04:01:42.413  $IIRMB,V,,,,,,,,,,,,,N*45
2026-04-16 04:01:42.416  !AIVDM,1,1,,B,E>kb9KPs7@@@@@@@@@@@@@@@@@@;Vu`8:lJM@00003vP10,4*70
2026-04-16 04:01:42.418  $HCHDG,247.00,,,,*73
2026-04-16 04:01:42.418  $TIROT,-8.24,A*28
2026-04-16 04:01:42.513  $YXXDR,A,-112.99,D,Yaw,A,-2.54,D,Pitch,A,-0.67,D,Roll*4D
2026-04-16 04:01:42.513  $IIRMC,,V,,,,,,,,015,E,N*35
2026-04-16 04:01:42.520  $HCHDG,247.00,,,,*73
2026-04-16 04:01:42.520  $TIROT,-7.55,A*21
2026-04-16 04:01:42.538  $YXXDR,A,-112.98,D,Yaw,A,-2.53,D,Pitch,A,-0.67,D,Roll*4B
2026-04-16 04:01:42.543  $IIVHW,,T,,M,0.00,N,0.00,K*55
2026-04-16 04:01:42.548  $GPGSV,3,3,12,28,55,128,47,31,36,166,45,32,51,042,46,44,46,171,49*76
2026-04-16 04:01:42.639  $IIVDR,12.77,T,,M,0.00,N*24
2026-04-16 04:01:42.639  $IIVLW,5768.51,N,5768.51,N*4D
2026-04-16 04:01:42.639  $PGRME,3.8,M,6.6,M,7.6,M*24
2026-04-16 04:01:42.639  $HCHDG,247.01,,,,*72
2026-04-16 04:01:42.639  $TIROT,-5.87,A*2C
2026-04-16 04:01:42.639  $YXXDR,A,-112.97,D,Yaw,A,-2.53,D,Pitch,A,-0.67,D,Roll*44
2026-04-16 04:01:42.643  !AIVDM,1,1,,B,35N06LPP0CoC0@0Emld`fPwF221h,0*26
2026-04-16 04:01:42.660  $IIVTG,,T,,M,,N,,K,N*3B
2026-04-16 04:01:42.671  $PGRMB,0.0,200,,,,K,,N,W*28
2026-04-16 04:01:42.763  $PGRMM,WGS 84*06
2026-04-16 04:01:42.763  $HCHDG,247.01,,,,*72
2026-04-16 04:01:42.763  $TIROT,-5.76,A*22
2026-04-16 04:01:42.763  $YXXDR,A,-112.97,D,Yaw,A,-2.54,D,Pitch,A,-0.67,D,Roll*43
2026-04-16 04:01:42.890  $HCHDG,247.03,,,,*70
2026-04-16 04:01:42.890  $TIROT,-5.38,A*28
2026-04-16 04:01:42.890  $YXXDR,A,-112.97,D,Yaw,A,-2.53,D,Pitch,A,-0.66,D,Roll*45
2026-04-16 04:01:42.924  $HCHDG,247.02,,,,*71
2026-04-16 04:01:42.924  $TIROT,-6.06,A*26
2026-04-16 04:01:43.016  $YXXDR,A,-112.97,D,Yaw,A,-2.53,D,Pitch,A,-0.67,D,Roll*44
2026-04-16 04:01:43.016  !AIVDO,1,1,,,B52cumP00=l::t5GKvkQ3wmQl000,0*7F
2026-04-16 04:01:43.021  $HCHDG,247.02,,,,*71
2026-04-16 04:01:43.021  $TIROT,-5.39,A*29
2026-04-16 04:01:43.036  $YXXDR,A,-112.98,D,Yaw,A,-2.52,D,Pitch,A,-0.67,D,Roll*4A
2026-04-16 04:01:43.121  $GPRMC,040143,A,3730.7508,N,12211.6960,W,000.0,020.7,160426,015.0,E*65
2026-04-16 04:01:43.122  $HCHDG,247.01,,,,*72
2026-04-16 04:01:43.122  $TIROT,-6.03,A*23
2026-04-16 04:01:43.138  $YXXDR,A,-112.97,D,Yaw,A,-2.52,D,Pitch,A,-0.67,D,Roll*45
2026-04-16 04:01:43.227  $HCHDG,247.02,,,,*71
2026-04-16 04:01:43.227  $TIROT,-5.38,A*28
2026-04-16 04:01:43.235  $YXXDR,A,-112.95,D,Yaw,A,-2.52,D,Pitch,A,-0.66,D,Roll*46
2026-04-16 04:01:43.263  $GPGGA,040143,3730.7508,N,12211.6960,W,1,10,0.8,-2.8,M,-28.3,M,,*5D
2026-04-16 04:01:43.297  !AIVDM,1,1,,A,E>kb9Lhs9h@@@@@@@@@@@@@@@@@;W6H@:iND000003vP10,4*00
2026-04-16 04:01:43.320  $HCHDG,247.04,,,,*77
2026-04-16 04:01:43.320  $TIROT,-3.50,A*20
2026-04-16 04:01:43.335  $YXXDR,A,-112.97,D,Yaw,A,-2.52,D,Pitch,A,-0.66,D,Roll*44
2026-04-16 04:01:43.386  $GPGSA,A,3,01,02,03,,08,10,,25,28,31,32,44,1.4,0.8,1.1*38
2026-04-16 04:01:43.420  $HCHDG,247.03,,,,*70
2026-04-16 04:01:43.420  $TIROT,-5.33,A*23
2026-04-16 04:01:43.435  $YXXDR,A,-112.95,D,Yaw,A,-2.52,D,Pitch,A,-0.65,D,Roll*45
2026-04-16 04:01:43.519  $HCHDG,247.04,,,,*77
2026-04-16 04:01:43.519  $TIROT,-4.71,A*24
2026-04-16 04:01:43.533  $GPGSV,3,1,12,01,43,310,47,02,66,263,49,03,17,298,39,04,02,239,00*75
2026-04-16 04:01:43.536  $YXXDR,A,-112.94,D,Yaw,A,-2.51,D,Pitch,A,-0.65,D,Roll*47
2026-04-16 04:01:43.565  !AIVDM,1,1,,B,ENkb;0<Hah@@@@@@@@@@@@@@@@@;Wd6H:ewt000003vP00,4*1A
2026-04-16 04:01:43.568  $IIVDR,12.77,T,,M,0.00,N*24
2026-04-16 04:01:43.591  $PGRME,3.8,M,6.6,M,7.6,M*24
2026-04-16 04:01:43.621  $HCHDG,247.05,,,,*76
2026-04-16 04:01:43.621  $TIROT,-3.57,A*27
2026-04-16 04:01:43.636  $YXXDR,A,-112.93,D,Yaw,A,-2.50,D,Pitch,A,-0.64,D,Roll*40
2026-04-16 04:01:43.651  $PGRMB,0.0,200,,,,K,,N,W*28
2026-04-16 04:01:43.688  $PGRMM,WGS 84*06
2026-04-16 04:01:43.720  $HCHDG,247.06,,,,*75
2026-04-16 04:01:43.720  $TIROT,-2.58,A*29
2026-04-16 04:01:43.736  $YXXDR,A,-112.91,D,Yaw,A,-2.50,D,Pitch,A,-0.64,D,Roll*42
2026-04-16 04:01:43.819  $HCHDG,247.08,,,,*7B
2026-04-16 04:01:43.819  $TIROT,-0.75,A*24
2026-04-16 04:01:43.835  $YXXDR,A,-112.92,D,Yaw,A,-2.50,D,Pitch,A,-0.64,D,Roll*41
2026-04-16 04:01:43.920  $HCHDG,247.07,,,,*74
2026-04-16 04:01:43.920  $TIROT,-3.14,A*20
2026-04-16 04:01:43.938  $YXXDR,A,-112.91,D,Yaw,A,-2.50,D,Pitch,A,-0.64,D,Roll*42
2026-04-16 04:01:44.016  !AIVDO,1,1,,,B52cumP00=l::t5GKvkQ3wn1l000,0*1C
2026-04-16 04:01:44.019  $HCHDG,247.08,,,,*7B
2026-04-16 04:01:44.019  $TIROT,-2.91,A*2C
2026-04-16 04:01:44.036  $YXXDR,A,-112.91,D,Yaw,A,-2.50,D,Pitch,A,-0.64,D,Roll*42
2026-04-16 04:01:44.119  $HCHDG,247.08,,,,*7B
2026-04-16 04:01:44.119  $TIROT,-3.23,A*24
2026-04-16 04:01:44.135  $YXXDR,A,-112.90,D,Yaw,A,-2.50,D,Pitch,A,-0.65,D,Roll*42
2026-04-16 04:01:44.141  $GPRMC,040144,A,3730.7508,N,12211.6961,W,000.0,020.7,160426,015.0,E*63
2026-04-16 04:01:44.220  $HCHDG,247.09,,,,*7A
2026-04-16 04:01:44.220  $TIROT,-2.37,A*20
2026-04-16 04:01:44.236  $YXXDR,A,-112.90,D,Yaw,A,-2.50,D,Pitch,A,-0.65,D,Roll*42
2026-04-16 04:01:44.284  $GPGGA,040144,3730.7508,N,12211.6961,W,1,10,0.8,-2.8,M,-28.3,M,,*5B
2026-04-16 04:01:44.320  $HCHDG,247.09,,,,*7A
2026-04-16 04:01:44.320  $TIROT,-4.50,A*27
2026-04-16 04:01:44.336  $YXXDR,A,-112.89,D,Yaw,A,-2.49,D,Pitch,A,-0.65,D,Roll*42
2026-04-16 04:01:44.406  $GPGSA,A,3,01,02,03,,08,10,,25,28,31,32,44,1.4,0.8,1.1*38
2026-04-16 04:01:44.419  $HCHDG,247.10,,,,*72
2026-04-16 04:01:44.420  $TIROT,-3.04,A*21
2026-04-16 04:01:44.435  $YXXDR,A,-112.89,D,Yaw,A,-2.49,D,Pitch,A,-0.65,D,Roll*42
2026-04-16 04:01:44.521  $HCHDG,247.09,,,,*7A
2026-04-16 04:01:44.521  $TIROT,-3.67,A*24
2026-04-16 04:01:44.535  $YXXDR,A,-112.90,D,Yaw,A,-2.48,D,Pitch,A,-0.65,D,Roll*4B
2026-04-16 04:01:44.553  $GPGSV,3,2,12,08,12,228,42,10,30,090,46,17,01,329,00,25,03,079,41*77
2026-04-16 04:01:44.569  $IIVDR,12.77,T,,M,0.00,N*24
2026-04-16 04:01:44.611  $PGRME,3.8,M,6.6,M,7.6,M*24
2026-04-16 04:01:44.619  $HCHDG,247.09,,,,*7A
2026-04-16 04:01:44.619  $TIROT,-5.67,A*22
2026-04-16 04:01:44.632  !AIVDM,1,1,,A,E>kb9L@r9h@@@@@@@@@@@@@@@@@;W6H@:c>T@00003vP10,4*33
2026-04-16 04:01:44.636  $YXXDR,A,-112.90,D,Yaw,A,-2.48,D,Pitch,A,-0.64,D,Roll*4A
2026-04-16 04:01:44.671  $PGRMB,0.0,200,,,,K,,N,W*28
2026-04-16 04:01:44.672  $IIDPT,0.87,,*7D
2026-04-16 04:01:44.712  $PGRMM,WGS 84*06
2026-04-16 04:01:44.720  $HCHDG,247.09,,,,*7A
2026-04-16 04:01:44.720  $TIROT,-5.73,A*27
2026-04-16 04:01:44.726  $IIHDG,,,,015,E*16
2026-04-16 04:01:44.735  $YXXDR,A,-112.90,D,Yaw,A,-2.48,D,Pitch,A,-0.64,D,Roll*4A
2026-04-16 04:01:44.756  $IIHDM,,M*0C
2026-04-16 04:01:44.785  $IIHDT,,T*0C
2026-04-16 04:01:44.819  $HCHDG,247.09,,,,*7A
2026-04-16 04:01:44.820  $TIROT,-7.44,A*21
2026-04-16 04:01:44.825  $IIMTW,90.16,C*2D
2026-04-16 04:01:44.836  $YXXDR,A,-112.90,D,Yaw,A,-2.49,D,Pitch,A,-0.64,D,Roll*4B
2026-04-16 04:01:44.892  $IIMWD,,T,,M,2.89,N,1.49,M*4B
2026-04-16 04:01:44.919  $HCHDG,247.08,,,,*7B
2026-04-16 04:01:44.919  $TIROT,-8.17,A*28
2026-04-16 04:01:44.935  $YXXDR,A,-112.91,D,Yaw,A,-2.49,D,Pitch,A,-0.63,D,Roll*4D
2026-04-16 04:01:44.946  $IIMWV,006,R,2.89,N,A*16
2026-04-16 04:01:45.003  $IIRMB,V,,,,,,,,,,,,,N*45
2026-04-16 04:01:45.010  !AIVDO,1,1,,,B52cumP00=l::t5GKvkQ3wnQl000,0*7C
2026-04-16 04:01:45.020  $HCHDG,247.08,,,,*7B
2026-04-16 04:01:45.020  $TIROT,-8.21,A*2D
2026-04-16 04:01:45.035  $YXXDR,A,-112.91,D,Yaw,A,-2.48,D,Pitch,A,-0.63,D,Roll*4C
2026-04-16 04:01:45.064  $IIRMC,,V,,,,,,,,015,E,N*35
2026-04-16 04:01:45.127  $HCHDG,247.08,,,,*7B
2026-04-16 04:01:45.127  $TIROT,-7.86,A*2F
2026-04-16 04:01:45.127  $GPRMC,040145,A,3730.7508,N,12211.6962,W,000.0,020.7,160426,015.0,E*61
2026-04-16 04:01:45.131  $IIVHW,,T,,M,0.00,N,0.00,K*55
2026-04-16 04:01:45.135  $YXXDR,A,-112.92,D,Yaw,A,-2.48,D,Pitch,A,-0.62,D,Roll*4E
2026-04-16 04:01:45.205  $IIVLW,5768.51,N,5768.51,N*4D
2026-04-16 04:01:45.221  $HCHDG,247.07,,,,*74
2026-04-16 04:01:45.221  $TIROT,-8.54,A*2F
2026-04-16 04:01:45.237  $YXXDR,A,-112.92,D,Yaw,A,-2.47,D,Pitch,A,-0.61,D,Roll*42
2026-04-16 04:01:45.247  $IIVTG,,T,,M,,N,,K,N*3B
2026-04-16 04:01:45.266  $GPGGA,040145,3730.7508,N,12211.6962,W,1,10,0.8,-2.9,M,-28.3,M,,*58
2026-04-16 04:01:45.322  $HCHDG,247.07,,,,*74
2026-04-16 04:01:45.322  $TIROT,-9.29,A*24
2026-04-16 04:01:45.335  $YXXDR,A,-112.92,D,Yaw,A,-2.46,D,Pitch,A,-0.61,D,Roll*43
2026-04-16 04:01:45.388  $GPGSA,A,3,01,02,03,,08,10,,25,28,31,32,44,1.4,0.8,1.1*38
2026-04-16 04:01:45.434  $HCHDG,247.07,,,,*74
2026-04-16 04:01:45.434  $TIROT,-7.92,A*2A
2026-04-16 04:01:45.435  $YXXDR,A,-112.92,D,Yaw,A,-2.46,D,Pitch,A,-0.61,D,Roll*43
2026-04-16 04:01:45.520  $HCHDG,247.07,,,,*74
2026-04-16 04:01:45.520  $TIROT,-7.87,A*2E
2026-04-16 04:01:45.541  $GPGSV,3,3,12,28,55,128,47,31,36,166,45,32,51,042,46,44,46,171,49*76
2026-04-16 04:01:45.541  $YXXDR,A,-112.93,D,Yaw,A,-2.47,D,Pitch,A,-0.61,D,Roll*43
2026-04-16 04:01:45.569  $IIVDR,12.77,T,,M,0.00,N*24
2026-04-16 04:01:45.594  $PGRME,3.8,M,6.6,M,7.6,M*24
2026-04-16 04:01:45.621  $HCHDG,247.06,,,,*75
2026-04-16 04:01:45.621  $TIROT,-8.56,A*2D
2026-04-16 04:01:45.640  $YXXDR,A,-112.92,D,Yaw,A,-2.47,D,Pitch,A,-0.61,D,Roll*42
2026-04-16 04:01:45.654  $PGRMB,0.0,200,,,,K,,N,W*28
2026-04-16 04:01:45.683  !AIVDM,1,1,,B,H52PR54UCBD:2VK0000000189320,0*5D
2026-04-16 04:01:45.691  $PGRMM,WGS 84*06
2026-04-16 04:01:45.719  $HCHDG,247.07,,,,*74
2026-04-16 04:01:45.719  $TIROT,-7.22,A*21
2026-04-16 04:01:45.735  $YXXDR,A,-112.91,D,Yaw,A,-2.47,D,Pitch,A,-0.60,D,Roll*40
2026-04-16 04:01:45.821  $HCHDG,247.08,,,,*7B
2026-04-16 04:01:45.822  $TIROT,-5.32,A*22
2026-04-16 04:01:45.838  $YXXDR,A,-112.90,D,Yaw,A,-2.47,D,Pitch,A,-0.60,D,Roll*41
2026-04-16 04:01:45.921  $HCHDG,247.08,,,,*7B
2026-04-16 04:01:45.921  $TIROT,-4.32,A*23
2026-04-16 04:01:45.935  $YXXDR,A,-112.90,D,Yaw,A,-2.47,D,Pitch,A,-0.60,D,Roll*41
2026-04-16 04:01:46.010  !AIVDO,1,1,,,B52cumP00=l::t5GKvkQ3wo1l000,0*1D
2026-04-16 04:01:46.020  $HCHDG,247.09,,,,*7A
2026-04-16 04:01:46.020  $TIROT,-3.30,A*26
2026-04-16 04:01:46.034  $YXXDR,A,-112.90,D,Yaw,A,-2.47,D,Pitch,A,-0.60,D,Roll*41
2026-04-16 04:01:46.122  $HCHDG,247.09,,,,*7A
2026-04-16 04:01:46.122  $TIROT,-3.62,A*21
2026-04-16 04:01:46.137  $YXXDR,A,-112.89,D,Yaw,A,-2.48,D,Pitch,A,-0.60,D,Roll*46
2026-04-16 04:01:46.138  $GPRMC,040146,A,3730.7508,N,12211.6962,W,000.0,020.7,160426,015.0,E*62
2026-04-16 04:01:46.220  $HCHDG,247.10,,,,*72
2026-04-16 04:01:46.220  $TIROT,-3.56,A*26
2026-04-16 04:01:46.235  $YXXDR,A,-112.90,D,Yaw,A,-2.48,D,Pitch,A,-0.61,D,Roll*4F
2026-04-16 04:01:46.282  $GPGGA,040146,3730.7508,N,12211.6962,W,1,10,0.8,-2.9,M,-28.3,M,,*5B
2026-04-16 04:01:46.318  $HCHDG,247.09,,,,*7A
2026-04-16 04:01:46.319  $TIROT,-4.92,A*29
2026-04-16 04:01:46.335  $YXXDR,A,-112.88,D,Yaw,A,-2.48,D,Pitch,A,-0.60,D,Roll*47
2026-04-16 04:01:46.405  $GPGSA,A,3,01,02,03,,08,10,,25,28,31,32,44,1.4,0.8,1.1*38
2026-04-16 04:01:46.417  !AIVDM,1,1,,B,ENkb:f2`7TW:@17W4b0h6:@@@@@;WSE`:lK9@00003vP00,4*1B
2026-04-16 04:01:46.420  $HCHDG,247.11,,,,*73
2026-04-16 04:01:46.420  $TIROT,-3.98,A*24
2026-04-16 04:01:46.435  $YXXDR,A,-112.88,D,Yaw,A,-2.48,D,Pitch,A,-0.61,D,Roll*46
2026-04-16 04:01:46.520  $HCHDG,247.11,,,,*73
2026-04-16 04:01:46.520  $TIROT,-2.98,A*25
2026-04-16 04:01:46.534  $YXXDR,A,-112.87,D,Yaw,A,-2.48,D,Pitch,A,-0.61,D,Roll*49
2026-04-16 04:01:46.551  $GPGSV,3,1,12,01,43,310,47,02,66,263,49,03,17,298,40,04,02,239,00*7B
2026-04-16 04:01:46.569  $IIVDR,12.77,T,,M,0.00,N*24
2026-04-16 04:01:46.610  $PGRME,3.8,M,6.6,M,7.6,M*24
2026-04-16 04:01:46.621  $HCHDG,247.11,,,,*73
2026-04-16 04:01:46.621  $TIROT,-3.21,A*26
2026-04-16 04:01:46.635  $YXXDR,A,-112.90,D,Yaw,A,-2.48,D,Pitch,A,-0.61,D,Roll*4F
2026-04-16 04:01:46.673  $PGRMB,0.0,200,,,,K,,N,W*28
2026-04-16 04:01:46.706  $PGRMM,WGS 84*06
2026-04-16 04:01:46.722  $HCHDG,247.09,,,,*7A
2026-04-16 04:01:46.722  $TIROT,-7.61,A*26
2026-04-16 04:01:46.735  $YXXDR,A,-112.89,D,Yaw,A,-2.47,D,Pitch,A,-0.61,D,Roll*48
2026-04-16 04:01:46.822  $HCHDG,247.09,,,,*7A
2026-04-16 04:01:46.822  $TIROT,-6.97,A*2E
2026-04-16 04:01:46.839  $YXXDR,A,-112.89,D,Yaw,A,-2.47,D,Pitch,A,-0.61,D,Roll*48
2026-04-16 04:01:46.918  $HCHDG,247.10,,,,*72
2026-04-16 04:01:46.919  $TIROT,-6.61,A*27
2026-04-16 04:01:46.935  $YXXDR,A,-112.88,D,Yaw,A,-2.46,D,Pitch,A,-0.59,D,Roll*43
2026-04-16 04:01:47.010  !AIVDO,1,1,,,B52cumP00=l::t5GKvkQ3woQl000,0*7D
2026-04-16 04:01:47.019  $HCHDG,247.10,,,,*72
2026-04-16 04:01:47.019  $TIROT,-5.24,A*25
2026-04-16 04:01:47.035  $YXXDR,A,-112.87,D,Yaw,A,-2.45,D,Pitch,A,-0.59,D,Roll*4F
2026-04-16 04:01:47.070  !AIVDM,1,1,,B,15O?HFPP0:o@2p0E`auSUE3J0@Ka,0*59
2026-04-16 04:01:47.121  $GPRMC,040147,A,3730.7508,N,12211.6963,W,000.0,020.7,160426,015.0,E*62
2026-04-16 04:01:47.121  $HCHDG,247.12,,,,*70
2026-04-16 04:01:47.121  $TIROT,-2.68,A*2A
2026-04-16 04:01:47.138  $YXXDR,A,-112.87,D,Yaw,A,-2.46,D,Pitch,A,-0.58,D,Roll*4D
2026-04-16 04:01:47.221  $HCHDG,247.12,,,,*70
2026-04-16 04:01:47.221  $TIROT,-3.17,A*23
2026-04-16 04:01:47.235  $YXXDR,A,-112.86,D,Yaw,A,-2.45,D,Pitch,A,-0.58,D,Roll*4F
2026-04-16 04:01:47.262  $IIDPT,0.98,,*73
2026-04-16 04:01:47.263  $GPGGA,040147,3730.7508,N,12211.6963,W,1,10,0.8,-2.9,M,-28.3,M,,*5B
2026-04-16 04:01:47.302  !AIVDM,1,1,,A,E>kb9LPrah@@@@@@@@@@@@@@@@@;W6H@:faD@00003vP10,4*31
2026-04-16 04:01:47.302  $IIHDG,,,,015,E*16
2026-04-16 04:01:47.321  $HCHDG,247.13,,,,*71
2026-04-16 04:01:47.321  $TIROT,-2.01,A*25
2026-04-16 04:01:47.330  $IIHDM,,M*0C
2026-04-16 04:01:47.335  $YXXDR,A,-112.86,D,Yaw,A,-2.46,D,Pitch,A,-0.58,D,Roll*4C
2026-04-16 04:01:47.361  $IIHDT,,T*0C
2026-04-16 04:01:47.386  $GPGSA,A,3,01,02,03,,08,10,,25,28,31,32,44,1.4,0.8,1.1*38
2026-04-16 04:01:47.400  $IIMTW,90.16,C*2D
2026-04-16 04:01:47.419  $HCHDG,247.13,,,,*71
2026-04-16 04:01:47.419  $TIROT,-3.39,A*2F
2026-04-16 04:01:47.435  $YXXDR,A,-112.85,D,Yaw,A,-2.46,D,Pitch,A,-0.58,D,Roll*4F
2026-04-16 04:01:47.466  $IIMWD,,T,,M,2.60,N,1.34,M*46
2026-04-16 04:01:47.520  $HCHDG,247.14,,,,*76
2026-04-16 04:01:47.520  $TIROT,-2.90,A*2D
2026-04-16 04:01:47.520  $IIMWV,013,T,2.60,N,A*13
2026-04-16 04:01:47.532  $GPGSV,3,2,12,08,12,228,42,10,30,090,46,17,01,329,00,25,03,079,42*74
2026-04-16 04:01:47.535  $YXXDR,A,-112.84,D,Yaw,A,-2.47,D,Pitch,A,-0.58,D,Roll*4F
2026-04-16 04:01:47.564  !AIVDM,1,1,,B,E>kb9L@r9h@@@@@@@@@@@@@@@@@;W6H@:c>T@00003vP10,4*30
2026-04-16 04:01:47.569  $IIVDR,12.77,T,,M,0.00,N*24
2026-04-16 04:01:47.579  $IIRMB,V,,,,,,,,,,,,,N*45
2026-04-16 04:01:47.591  $PGRME,3.8,M,6.6,M,7.6,M*24
2026-04-16 04:01:47.618  $HCHDG,247.15,,,,*77
2026-04-16 04:01:47.619  $TIROT,-3.28,A*2F
2026-04-16 04:01:47.637  $YXXDR,A,-112.83,D,Yaw,A,-2.47,D,Pitch,A,-0.58,D,Roll*48
2026-04-16 04:01:47.638  $IIRMC,,V,,,,,,,,015,E,N*35
2026-04-16 04:01:47.652  $PGRMB,0.0,200,,,,K,,N,W*28
2026-04-16 04:01:47.689  $PGRMM,WGS 84*06
2026-04-16 04:01:47.703  $IIVHW,,T,,M,0.00,N,0.00,K*55
2026-04-16 04:01:47.719  $HCHDG,247.15,,,,*77
2026-04-16 04:01:47.721  $TIROT,-2.85,A*29
2026-04-16 04:01:47.736  $YXXDR,A,-112.82,D,Yaw,A,-2.46,D,Pitch,A,-0.57,D,Roll*47
2026-04-16 04:01:47.770  $IIVLW,5768.51,N,5768.51,N*4D
2026-04-16 04:01:47.819  $HCHDG,247.16,,,,*74
2026-04-16 04:01:47.819  $TIROT,-2.02,A*26
2026-04-16 04:01:47.822  $IIVTG,,T,,M,,N,,K,N*3B
2026-04-16 04:01:47.837  $YXXDR,A,-112.82,D,Yaw,A,-2.46,D,Pitch,A,-0.57,D,Roll*47
2026-04-16 04:01:47.919  $HCHDG,247.17,,,,*75
2026-04-16 04:01:47.919  $TIROT,-1.28,A*2D
2026-04-16 04:01:47.934  $YXXDR,A,-112.81,D,Yaw,A,-2.45,D,Pitch,A,-0.58,D,Roll*48
2026-04-16 04:01:48.011  !AIVDO,1,1,,,B52cumP00=l::t5GKvkQ3wp1l000,0*02
2026-04-16 04:01:48.021  $HCHDG,247.18,,,,*7A
2026-04-16 04:01:48.021  $TIROT,-2.01,A*25
2026-04-16 04:01:48.029  !AIVDM,1,1,,A,15O<nod000o@>MPEWwH0dUUN08L=,0*46
2026-04-16 04:01:48.034  $YXXDR,A,-112.80,D,Yaw,A,-2.45,D,Pitch,A,-0.59,D,Roll*48
2026-04-16 04:01:48.119  $HCHDG,247.19,,,,*7B
2026-04-16 04:01:48.120  $TIROT,-2.34,A*23
2026-04-16 04:01:48.135  $YXXDR,A,-112.80,D,Yaw,A,-2.44,D,Pitch,A,-0.60,D,Roll*43
2026-04-16 04:01:48.139  $GPRMC,040148,A,3730.7508,N,12211.6963,W,000.0,020.7,160426,015.0,E*6D
2026-04-16 04:01:48.219  $HCHDG,247.19,,,,*7B
2026-04-16 04:01:48.221  $TIROT,-2.16,A*23
2026-04-16 04:01:48.239  $YXXDR,A,-112.79,D,Yaw,A,-2.44,D,Pitch,A,-0.60,D,Roll*45
2026-04-16 04:01:48.284  $GPGGA,040148,3730.7508,N,12211.6963,W,1,10,0.8,-2.9,M,-28.3,M,,*54
2026-04-16 04:01:48.318  $HCHDG,247.20,,,,*71
2026-04-16 04:01:48.319  $TIROT,-2.57,A*26
2026-04-16 04:01:48.325  !AIVDM,1,1,,B,15NJQiP01dG@7LPEW@M49CCR04P4,0*24
2026-04-16 04:01:48.335  $YXXDR,A,-112.79,D,Yaw,A,-2.44,D,Pitch,A,-0.61,D,Roll*44
2026-04-16 04:01:48.404  $GPGSA,A,3,01,02,03,,08,10,,25,28,31,32,44,1.4,0.8,1.1*38
2026-04-16 04:01:48.418  $HCHDG,247.20,,,,*71
2026-04-16 04:01:48.418  $TIROT,-3.64,A*27
2026-04-16 04:01:48.435  $YXXDR,A,-112.78,D,Yaw,A,-2.43,D,Pitch,A,-0.61,D,Roll*42
2026-04-16 04:01:48.519  $HCHDG,247.21,,,,*70
2026-04-16 04:01:48.520  $TIROT,-2.86,A*2A
2026-04-16 04:01:48.534  $YXXDR,A,-112.78,D,Yaw,A,-2.44,D,Pitch,A,-0.61,D,Roll*45
2026-04-16 04:01:48.550  $GPGSV,3,3,12,28,55,128,47,31,36,166,45,32,51,042,46,44,46,171,49*76
2026-04-16 04:01:48.569  $IIVDR,12.77,T,,M,0.00,N*24
2026-04-16 04:01:48.616  $PGRME,3.8,M,6.6,M,7.6,M*24
2026-04-16 04:01:48.619  $HCHDG,247.21,,,,*70
2026-04-16 04:01:48.619  $TIROT,-3.33,A*25
2026-04-16 04:01:48.630  !AIVDM,1,1,,A,E>kb9Jhqah@@@@@@@@@@@@@@@@@;W?l@:c6h000003vP10,4*2F
2026-04-16 04:01:48.639  $YXXDR,A,-112.78,D,Yaw,A,-2.42,D,Pitch,A,-0.62,D,Roll*40
2026-04-16 04:01:48.670  !AIVDM,1,1,,A,152OTMhP00o?kNhES@h>4?wP20Sg,0*79
2026-04-16 04:01:48.670  $PGRMB,0.0,200,,,,K,,N,W*28
2026-04-16 04:01:48.707  $PGRMM,WGS 84*06
2026-04-16 04:01:48.720  $HCHDG,247.21,,,,*70
2026-04-16 04:01:48.720  $TIROT,-4.78,A*2D
2026-04-16 04:01:48.735  $YXXDR,A,-112.79,D,Yaw,A,-2.42,D,Pitch,A,-0.62,D,Roll*41
2026-04-16 04:01:48.819  $HCHDG,247.20,,,,*71
2026-04-16 04:01:48.820  $TIROT,-5.14,A*26
2026-04-16 04:01:48.835  $YXXDR,A,-112.77,D,Yaw,A,-2.42,D,Pitch,A,-0.61,D,Roll*4C
2026-04-16 04:01:48.918  $HCHDG,247.22,,,,*73
2026-04-16 04:01:48.919  $TIROT,-2.91,A*2C
2026-04-16 04:01:48.935  $YXXDR,A,-112.76,D,Yaw,A,-2.42,D,Pitch,A,-0.61,D,Roll*4D
2026-04-16 04:01:49.011  !AIVDO,1,1,,,B52cumP00=l::t5GKvkQ3wpQl000,0*62
2026-04-16 04:01:49.019  $HCHDG,247.23,,,,*72
2026-04-16 04:01:49.020  $TIROT,-2.53,A*22
2026-04-16 04:01:49.035  $YXXDR,A,-112.75,D,Yaw,A,-2.42,D,Pitch,A,-0.60,D,Roll*4F
2026-04-16 04:01:49.119  $HCHDG,247.24,,,,*75
2026-04-16 04:01:49.120  $TIROT,-0.77,A*26
2026-04-16 04:01:49.125  $GPRMC,040149,A,3730.7508,N,12211.6964,W,000.0,020.7,160426,015.0,E*6B
2026-04-16 04:01:49.135  $YXXDR,A,-112.74,D,Yaw,A,-2.43,D,Pitch,A,-0.60,D,Roll*4F
2026-04-16 04:01:49.219  $HCHDG,247.25,,,,*74
2026-04-16 04:01:49.219  $TIROT,-1.39,A*2D
2026-04-16 04:01:49.238  $YXXDR,A,-112.74,D,Yaw,A,-2.42,D,Pitch,A,-0.60,D,Roll*4E
2026-04-16 04:01:49.266  $GPGGA,040149,3730.7508,N,12211.6964,W,1,10,0.8,-2.9,M,-28.3,M,,*52
2026-04-16 04:01:49.282  !AIVDM,1,1,,A,B52j`T@00=l:F45GL<;Q3wpQnDhb,0*49
2026-04-16 04:01:49.319  $HCHDG,247.25,,,,*74
2026-04-16 04:01:49.320  $TIROT,-2.31,A*26
2026-04-16 04:01:49.334  $YXXDR,A,-112.72,D,Yaw,A,-2.42,D,Pitch,A,-0.59,D,Roll*42
2026-04-16 04:01:49.390  $GPGSA,A,3,01,02,03,,08,10,,25,28,31,32,44,1.4,0.8,1.1*38
2026-04-16 04:01:49.422  $HCHDG,247.26,,,,*77
2026-04-16 04:01:49.422  $TIROT,-1.30,A*24
2026-04-16 04:01:49.435  $YXXDR,A,-112.72,D,Yaw,A,-2.42,D,Pitch,A,-0.60,D,Roll*48
2026-04-16 04:01:49.443  !AIVDM,1,1,,B,15N06LPP0AoC0?0EmlV8e0iT2<09,0*02
2026-04-16 04:01:49.518  $HCHDG,247.27,,,,*76
2026-04-16 04:01:49.519  $TIROT,-0.98,A*27
2026-04-16 04:01:49.535  $GPGSV,3,1,12,01,43,310,47,02,66,263,49,03,17,298,40,04,02,239,00*7B
2026-04-16 04:01:49.535  $YXXDR,A,-112.71,D,Yaw,A,-2.41,D,Pitch,A,-0.59,D,Roll*42
2026-04-16 04:01:49.568  $IIVDR,12.77,T,,M,0.00,N*24
2026-04-16 04:01:49.596  $PGRME,3.8,M,6.6,M,7.6,M*24
2026-04-16 04:01:49.624  $HCHDG,247.28,,,,*79
2026-04-16 04:01:49.624  $TIROT,-0.03,A*25
2026-04-16 04:01:49.638  $YXXDR,A,-112.71,D,Yaw,A,-2.40,D,Pitch,A,-0.59,D,Roll*43
2026-04-16 04:01:49.654  $PGRMB,0.0,200,,,,K,,N,W*28
2026-04-16 04:01:49.692  $PGRMM,WGS 84*06
2026-04-16 04:01:49.721  $HCHDG,247.28,,,,*79
2026-04-16 04:01:49.722  $TIROT,-0.51,A*22
2026-04-16 04:01:49.738  $YXXDR,A,-112.72,D,Yaw,A,-2.40,D,Pitch,A,-0.60,D,Roll*4A
2026-04-16 04:01:49.819  $HCHDG,247.27,,,,*76
2026-04-16 04:01:49.820  $TIROT,-2.25,A*23
2026-04-16 04:01:49.834  $YXXDR,A,-112.72,D,Yaw,A,-2.39,D,Pitch,A,-0.60,D,Roll*44
2026-04-16 04:01:49.836  $IIDPT,1.17,,*75
2026-04-16 04:01:49.880  $IIHDG,,,,015,E*16
2026-04-16 04:01:49.908  $IIHDM,,M*0C
2026-04-16 04:01:49.924  $HCHDG,247.27,,,,*76
2026-04-16 04:01:49.924  $TIROT,-3.73,A*21
2026-04-16 04:01:49.936  $YXXDR,A,-112.72,D,Yaw,A,-2.39,D,Pitch,A,-0.58,D,Roll*4F
2026-04-16 04:01:49.940  $IIHDT,,T*0C
2026-04-16 04:01:49.978  $IIMTW,90.16,C*2D
2026-04-16 04:01:50.010  !AIVDO,1,1,,,B52cumP00=l::t5GKvkQ3wq1l000,0*03
2026-04-16 04:01:50.021  $HCHDG,247.27,,,,*76
2026-04-16 04:01:50.021  $TIROT,-3.92,A*2E
2026-04-16 04:01:50.035  $YXXDR,A,-112.71,D,Yaw,A,-2.38,D,Pitch,A,-0.57,D,Roll*42
2026-04-16 04:01:50.043  $IIMWD,,T,,M,1.94,N,1.00,M*49
2026-04-16 04:01:50.100  $IIMWV,016,R,1.94,N,A*18
2026-04-16 04:01:50.118  $HCHDG,247.28,,,,*79
2026-04-16 04:01:50.119  $TIROT,-4.03,A*21
2026-04-16 04:01:50.121  $GPRMC,040150,A,3730.7508,N,12211.6964,W,000.0,020.7,160426,015.0,E*63
2026-04-16 04:01:50.136  $YXXDR,A,-112.71,D,Yaw,A,-2.38,D,Pitch,A,-0.57,D,Roll*42
2026-04-16 04:01:50.162  $IIRMB,V,,,,,,,,,,,,,N*45
2026-04-16 04:01:50.217  $IIRMC,,V,,,,,,,,015,E,N*35
2026-04-16 04:01:50.218  $HCHDG,247.28,,,,*79
2026-04-16 04:01:50.218  $TIROT,-4.48,A*2E
2026-04-16 04:01:50.235  $YXXDR,A,-112.71,D,Yaw,A,-2.39,D,Pitch,A,-0.57,D,Roll*43
2026-04-16 04:01:50.243  !AIVDM,1,1,,A,15NJQiP01dG@7O0EW@HT9CCV0D2e,0*66
2026-04-16 04:01:50.265  $GPGGA,040150,3730.7508,N,12211.6964,W,1,10,0.8,-2.9,M,-28.3,M,,*5A
2026-04-16 04:01:50.281  $IIVHW,,T,,M,0.00,N,0.00,K*55
2026-04-16 04:01:50.324  $HCHDG,247.28,,,,*79
2026-04-16 04:01:50.324  $TIROT,-3.97,A*2B
2026-04-16 04:01:50.336  $YXXDR,A,-112.70,D,Yaw,A,-2.38,D,Pitch,A,-0.57,D,Roll*43
2026-04-16 04:01:50.346  $IIVLW,5768.51,N,5768.51,N*4D
2026-04-16 04:01:50.387  $GPGSA,A,3,01,02,03,,08,10,,25,28,31,32,44,1.4,0.8,1.1*38
2026-04-16 04:01:50.399  $IIVTG,,T,,M,,N,,K,N*3B
2026-04-16 04:01:50.416  !AIVDM,1,1,,B,ENkb9QjVTV2h97QUah@@@@@@@@@;WV98:l0Mh00003vP00,4*01
2026-04-16 04:01:50.418  $HCHDG,247.29,,,,*78
2026-04-16 04:01:50.422  $TIROT,-2.50,A*21
2026-04-16 04:01:50.436  $YXXDR,A,-112.70,D,Yaw,A,-2.38,D,Pitch,A,-0.57,D,Roll*43
2026-04-16 04:01:50.519  $HCHDG,247.29,,,,*78
2026-04-16 04:01:50.519  $TIROT,-3.31,A*27
2026-04-16 04:01:50.533  $GPGSV,3,2,12,08,12,228,42,10,30,090,46,17,01,329,00,25,03,079,42*74
2026-04-16 04:01:50.534  $YXXDR,A,-112.71,D,Yaw,A,-2.39,D,Pitch,A,-0.59,D,Roll*4D
2026-04-16 04:01:50.568  $IIVDR,12.77,T,,M,0.00,N*24
2026-04-16 04:01:50.591  $PGRME,3.8,M,6.6,M,7.6,M*24
2026-04-16 04:01:50.620  $HCHDG,247.28,,,,*79
2026-04-16 04:01:50.620  $TIROT,-4.98,A*23
2026-04-16 04:01:50.636  $YXXDR,A,-112.71,D,Yaw,A,-2.38,D,Pitch,A,-0.59,D,Roll*4C
2026-04-16 04:01:50.652  $PGRMB,0.0,200,,,,K,,N,W*28
2026-04-16 04:01:50.690  $PGRMM,WGS 84*06
2026-04-16 04:01:50.721  $HCHDG,247.28,,,,*79
2026-04-16 04:01:50.721  $TIROT,-5.64,A*21
2026-04-16 04:01:50.738  $YXXDR,A,-112.71,D,Yaw,A,-2.38,D,Pitch,A,-0.60,D,Roll*46
2026-04-16 04:01:50.819  $HCHDG,247.28,,,,*79
2026-04-16 04:01:50.819  $TIROT,-5.78,A*2C
2026-04-16 04:01:50.836  $YXXDR,A,-112.70,D,Yaw,A,-2.38,D,Pitch,A,-0.58,D,Roll*4C
2026-04-16 04:01:50.920  $HCHDG,247.28,,,,*79
2026-04-16 04:01:50.920  $TIROT,-4.52,A*25
2026-04-16 04:01:50.934  $YXXDR,A,-112.70,D,Yaw,A,-2.38,D,Pitch,A,-0.58,D,Roll*4C
2026-04-16 04:01:51.010  !AIVDO,1,1,,,B52cumP00=l::t5GKvkQ3wqQl000,0*63
2026-04-16 04:01:51.020  $HCHDG,247.30,,,,*70
2026-04-16 04:01:51.020  $TIROT,-3.87,A*2A
2026-04-16 04:01:51.035  $YXXDR,A,-112.70,D,Yaw,A,-2.38,D,Pitch,A,-0.58,D,Roll*4C
2026-04-16 04:01:51.127  $HCHDG,247.30,,,,*70
2026-04-16 04:01:51.128  $TIROT,-3.88,A*25
2026-04-16 04:01:51.131  $GPRMC,040151,A,3730.7508,N,12211.6964,W,000.0,020.7,160426,015.0,E*62
2026-04-16 04:01:51.134  $YXXDR,A,-112.70,D,Yaw,A,-2.38,D,Pitch,A,-0.57,D,Roll*43
2026-04-16 04:01:51.218  $HCHDG,247.30,,,,*70
2026-04-16 04:01:51.220  $TIROT,-5.15,A*27
2026-04-16 04:01:51.235  $YXXDR,A,-112.69,D,Yaw,A,-2.38,D,Pitch,A,-0.57,D,Roll*4B
2026-04-16 04:01:51.279  $GPGGA,040151,3730.7508,N,12211.6964,W,1,10,0.8,-2.8,M,-28.3,M,,*5A
2026-04-16 04:01:51.297  !AIVDM,1,1,,A,E>kb9JPq9h@@@@@@@@@@@@@@@@@;W?OP:faD@00003vP10,4*72
2026-04-16 04:01:51.320  $HCHDG,247.30,,,,*70
2026-04-16 04:01:51.320  $TIROT,-5.07,A*24
2026-04-16 04:01:51.334  $YXXDR,A,-112.69,D,Yaw,A,-2.38,D,Pitch,A,-0.57,D,Roll*4B
2026-04-16 04:01:51.397  $GPGSA,A,3,01,02,03,,08,10,,25,28,31,32,44,1.4,0.8,1.1*38
2026-04-16 04:01:51.418  $HCHDG,247.30,,,,*70
2026-04-16 04:01:51.419  $TIROT,-5.08,A*2B
2026-04-16 04:01:51.438  $YXXDR,A,-112.69,D,Yaw,A,-2.38,D,Pitch,A,-0.56,D,Roll*4A
2026-04-16 04:01:51.500  !AIVDM,1,1,,B,403OtVAuJ?T1ko?I`0E`4Bg02HN?,0*76
2026-04-16 04:01:51.518  $HCHDG,247.30,,,,*70
2026-04-16 04:01:51.519  $TIROT,-4.62,A*26
2026-04-16 04:01:51.535  $YXXDR,A,-112.68,D,Yaw,A,-2.37,D,Pitch,A,-0.55,D,Roll*47
2026-04-16 04:01:51.543  $GPGSV,3,3,12,28,55,128,47,31,36,166,46,32,51,042,46,44,46,171,49*75
2026-04-16 04:01:51.565  !AIVDM,1,1,,B,E>kb9Jhqah@@@@@@@@@@@@@@@@@;W?l@:c6h000003vP10,4*2C
2026-04-16 04:01:51.570  $IIVDR,12.77,T,,M,0.00,N*24
2026-04-16 04:01:51.603  $PGRME,3.8,M,6.6,M,7.6,M*24
2026-04-16 04:01:51.618  $HCHDG,247.31,,,,*71
2026-04-16 04:01:51.619  $TIROT,-3.06,A*23
2026-04-16 04:01:51.637  $YXXDR,A,-112.68,D,Yaw,A,-2.37,D,Pitch,A,-0.54,D,Roll*46
2026-04-16 04:01:51.666  $PGRMB,0.0,200,,,,K,,N,W*28
2026-04-16 04:01:51.687  !AIVDM,1,1,,A,15O0kl004Lo?hU0Eb80VnESR0D2c,0*09
2026-04-16 04:01:51.700  $PGRMM,WGS 84*06
2026-04-16 04:01:51.720  $HCHDG,247.31,,,,*71
2026-04-16 04:01:51.720  $TIROT,-3.04,A*21
2026-04-16 04:01:51.736  $YXXDR,A,-112.68,D,Yaw,A,-2.37,D,Pitch,A,-0.53,D,Roll*41
2026-04-16 04:01:51.823  $HCHDG,247.31,,,,*71
2026-04-16 04:01:51.823  $TIROT,-3.30,A*26
2026-04-16 04:01:51.834  $YXXDR,A,-112.68,D,Yaw,A,-2.36,D,Pitch,A,-0.52,D,Roll*41
2026-04-16 04:01:51.919  $HCHDG,247.31,,,,*71
2026-04-16 04:01:51.919  $TIROT,-3.17,A*23
2026-04-16 04:01:51.924  !AIVDM,1,1,,B,403OtUiuJ?T1kG@`?PE?tf700PS:,0*75
2026-04-16 04:01:51.934  $YXXDR,A,-112.68,D,Yaw,A,-2.36,D,Pitch,A,-0.52,D,Roll*41
2026-04-16 04:01:52.009  !AIVDO,1,1,,,B52cumP00=l::t5GKvkQ3wr1l000,0*00
2026-04-16 04:01:52.019  $HCHDG,247.31,,,,*71
2026-04-16 04:01:52.020  $TIROT,-5.01,A*22
2026-04-16 04:01:52.034  $YXXDR,A,-112.68,D,Yaw,A,-2.37,D,Pitch,A,-0.52,D,Roll*40
2026-04-16 04:01:52.134  $GPRMC,040152,A,3730.7508,N,12211.6965,W,000.0,020.7,160426,015.0,E*60
2026-04-16 04:01:52.134  $HCHDG,247.31,,,,*71
2026-04-16 04:01:52.134  $TIROT,-4.82,A*28
2026-04-16 04:01:52.142  $YXXDR,A,-112.68,D,Yaw,A,-2.36,D,Pitch,A,-0.52,D,Roll*41
2026-04-16 04:01:52.219  $HCHDG,247.31,,,,*71
2026-04-16 04:01:52.219  $TIROT,-4.20,A*20
2026-04-16 04:01:52.240  $YXXDR,A,-112.68,D,Yaw,A,-2.35,D,Pitch,A,-0.51,D,Roll*41
2026-04-16 04:01:52.262  $GPGGA,040152,3730.7508,N,12211.6965,W,1,10,0.8,-2.9,M,-28.3,M,,*59
2026-04-16 04:01:52.318  $HCHDG,247.31,,,,*71
2026-04-16 04:01:52.319  $TIROT,-4.00,A*22
2026-04-16 04:01:52.335  $YXXDR,A,-112.68,D,Yaw,A,-2.37,D,Pitch,A,-0.52,D,Roll*40
2026-04-16 04:01:52.390  $GPGSA,A,3,01,02,03,,08,10,,25,28,31,32,44,1.4,0.8,1.1*38
2026-04-16 04:01:52.414  $IIDPT,1.17,,*75
2026-04-16 04:01:52.418  $HCHDG,247.31,,,,*71
2026-04-16 04:01:52.419  $TIROT,-4.65,A*21
2026-04-16 04:01:52.435  $YXXDR,A,-112.68,D,Yaw,A,-2.37,D,Pitch,A,-0.50,D,Roll*42
2026-04-16 04:01:52.469  $IIHDG,,,,015,E*16
2026-04-16 04:01:52.501  $IIHDM,,M*0C
2026-04-16 04:01:52.518  $HCHDG,247.31,,,,*71
2026-04-16 04:01:52.518  $TIROT,-4.03,A*21
2026-04-16 04:01:52.528  $IIHDT,,T*0C
2026-04-16 04:01:52.531  $GPGSV,3,1,12,01,43,310,47,02,66,263,49,03,17,298,39,04,02,239,00*75
2026-04-16 04:01:52.534  $YXXDR,A,-112.66,D,Yaw,A,-2.36,D,Pitch,A,-0.53,D,Roll*4E
2026-04-16 04:01:52.539  !AIVDM,1,1,,A,35N06LPP0;oC0>hEmlT8e0ib226@,0*65
2026-04-16 04:01:52.569  $IIVDR,12.77,T,,M,0.00,N*24
2026-04-16 04:01:52.569  $IIMTW,90.16,C*2D
2026-04-16 04:01:52.589  $PGRME,3.8,M,6.6,M,7.6,M*24
2026-04-16 04:01:52.618  $HCHDG,247.33,,,,*73
2026-04-16 04:01:52.618  $TIROT,-1.28,A*2D
2026-04-16 04:01:52.632  !AIVDM,1,1,,A,ENkb;0<Hah@@@@@@@@@@@@@@@@@;Wd6H:ewt000003vP00,4*19
2026-04-16 04:01:52.633  $IIMWD,,T,,M,1.59,N,0.82,M*43
2026-04-16 04:01:52.635  $YXXDR,A,-112.66,D,Yaw,A,-2.36,D,Pitch,A,-0.54,D,Roll*49
2026-04-16 04:01:52.650  $PGRMB,0.0,200,,,,K,,N,W*28
2026-04-16 04:01:52.687  $PGRMM,WGS 84*06
2026-04-16 04:01:52.688  $IIMWV,033,T,1.59,N,A*18
2026-04-16 04:01:52.718  $HCHDG,247.34,,,,*74
2026-04-16 04:01:52.721  $TIROT,-1.31,A*25
2026-04-16 04:01:52.735  $YXXDR,A,-112.66,D,Yaw,A,-2.35,D,Pitch,A,-0.54,D,Roll*4A
2026-04-16 04:01:52.745  $IIRMB,V,,,,,,,,,,,,,N*45
2026-04-16 04:01:52.807  $IIRMC,,V,,,,,,,,015,E,N*35
2026-04-16 04:01:52.818  $HCHDG,247.34,,,,*74
2026-04-16 04:01:52.819  $TIROT,-2.59,A*28
2026-04-16 04:01:52.835  $YXXDR,A,-112.65,D,Yaw,A,-2.36,D,Pitch,A,-0.52,D,Roll*4C
2026-04-16 04:01:52.871  $IIVHW,,T,,M,0.00,N,0.00,K*55
2026-04-16 04:01:52.918  $HCHDG,247.34,,,,*74
2026-04-16 04:01:52.919  $TIROT,-2.63,A*21
2026-04-16 04:01:52.935  $YXXDR,A,-112.65,D,Yaw,A,-2.34,D,Pitch,A,-0.52,D,Roll*4E
2026-04-16 04:01:52.937  $IIVLW,5768.51,N,5768.51,N*4D
2026-04-16 04:01:52.991  $IIVTG,,T,,M,,N,,K,N*3B
2026-04-16 04:01:53.011  !AIVDO,1,1,,,B52cumP00=l::t5GKvkQ3wrQl000,0*60
2026-04-16 04:01:53.020  $HCHDG,247.34,,,,*74
2026-04-16 04:01:53.020  $TIROT,-3.27,A*20
2026-04-16 04:01:53.035  $YXXDR,A,-112.65,D,Yaw,A,-2.34,D,Pitch,A,-0.52,D,Roll*4E
2026-04-16 04:01:53.122  $HCHDG,247.34,,,,*74
2026-04-16 04:01:53.123  $TIROT,-3.96,A*2A
2026-04-16 04:01:53.125  $GPRMC,040153,A,3730.7508,N,12211.6965,W,000.0,020.7,160426,015.0,E*61
2026-04-16 04:01:53.136  $YXXDR,A,-112.63,D,Yaw,A,-2.34,D,Pitch,A,-0.52,D,Roll*48
2026-04-16 04:01:53.218  $HCHDG,247.35,,,,*75
2026-04-16 04:01:53.220  $TIROT,-2.05,A*21
2026-04-16 04:01:53.235  $YXXDR,A,-112.63,D,Yaw,A,-2.34,D,Pitch,A,-0.51,D,Roll*4B
2026-04-16 04:01:53.270  $GPGGA,040153,3730.7508,N,12211.6965,W,1,10,0.8,-2.9,M,-28.3,M,,*58
2026-04-16 04:01:53.320  $HCHDG,247.36,,,,*76
2026-04-16 04:01:53.320  $TIROT,-0.79,A*28
2026-04-16 04:01:53.334  $YXXDR,A,-112.63,D,Yaw,A,-2.35,D,Pitch,A,-0.51,D,Roll*4A
2026-04-16 04:01:53.392  $GPGSA,A,3,01,02,03,,08,10,,25,28,31,32,44,1.4,0.8,1.1*38
2026-04-16 04:01:53.419  $HCHDG,247.36,,,,*76
2026-04-16 04:01:53.419  $TIROT,-2.28,A*2E
2026-04-16 04:01:53.436  $YXXDR,A,-112.62,D,Yaw,A,-2.36,D,Pitch,A,-0.51,D,Roll*48
2026-04-16 04:01:53.519  $HCHDG,247.38,,,,*78
2026-04-16 04:01:53.519  $TIROT,-1.10,A*26
2026-04-16 04:01:53.535  $YXXDR,A,-112.62,D,Yaw,A,-2.36,D,Pitch,A,-0.52,D,Roll*4B
2026-04-16 04:01:53.538  $GPGSV,3,2,12,08,12,228,42,10,30,090,45,17,01,329,00,25,03,078,41*75
2026-04-16 04:01:53.568  $IIVDR,12.77,T,,M,0.00,N*24
2026-04-16 04:01:53.596  $PGRME,3.8,M,6.6,M,7.6,M*24
2026-04-16 04:01:53.622  $HCHDG,247.36,,,,*76
2026-04-16 04:01:53.622  $TIROT,-2.43,A*23
2026-04-16 04:01:53.634  $YXXDR,A,-112.63,D,Yaw,A,-2.37,D,Pitch,A,-0.52,D,Roll*4B
2026-04-16 04:01:53.655  $PGRMB,0.0,200,,,,K,,N,W*28
2026-04-16 04:01:53.693  $PGRMM,WGS 84*06
2026-04-16 04:01:53.721  $HCHDG,247.36,,,,*76
2026-04-16 04:01:53.721  $TIROT,-2.36,A*21
2026-04-16 04:01:53.736  $YXXDR,A,-112.62,D,Yaw,A,-2.36,D,Pitch,A,-0.53,D,Roll*4A
2026-04-16 04:01:53.820  $HCHDG,247.37,,,,*77
2026-04-16 04:01:53.820  $TIROT,-1.61,A*20
2026-04-16 04:01:53.837  $YXXDR,A,-112.63,D,Yaw,A,-2.36,D,Pitch,A,-0.53,D,Roll*4B
2026-04-16 04:01:53.918  $HCHDG,247.36,,,,*76
2026-04-16 04:01:53.919  $TIROT,-3.05,A*20
2026-04-16 04:01:53.935  $YXXDR,A,-112.63,D,Yaw,A,-2.36,D,Pitch,A,-0.53,D,Roll*4B
2026-04-16 04:01:54.009  !AIVDO,1,1,,,B52cumP00=l::t5GKvkQ3ws1l000,0*01
2026-04-16 04:01:54.019  $HCHDG,247.36,,,,*76
2026-04-16 04:01:54.019  $TIROT,-3.93,A*2F
2026-04-16 04:01:54.034  $YXXDR,A,-112.63,D,Yaw,A,-2.35,D,Pitch,A,-0.52,D,Roll*49
2026-04-16 04:01:54.119  $HCHDG,247.36,,,,*76
2026-04-16 04:01:54.119  $TIROT,-4.77,A*22
2026-04-16 04:01:54.134  $YXXDR,A,-112.63,D,Yaw,A,-2.35,D,Pitch,A,-0.53,D,Roll*48
2026-04-16 04:01:54.138  $GPRMC,040154,A,3730.7508,N,12211.6965,W,000.0,020.7,160426,015.0,E*66
2026-04-16 04:01:54.221  $HCHDG,247.36,,,,*76
2026-04-16 04:01:54.221  $TIROT,-4.80,A*2A
2026-04-16 04:01:54.234  $YXXDR,A,-112.62,D,Yaw,A,-2.34,D,Pitch,A,-0.53,D,Roll*48
2026-04-16 04:01:54.281  $GPGGA,040154,3730.7508,N,12211.6965,W,1,10,0.8,-3.0,M,-28.3,M,,*57
2026-04-16 04:01:54.322  $HCHDG,247.37,,,,*77
2026-04-16 04:01:54.323  $TIROT,-4.23,A*23
2026-04-16 04:01:54.336  $YXXDR,A,-112.62,D,Yaw,A,-2.36,D,Pitch,A,-0.52,D,Roll*4B
2026-04-16 04:01:54.408  $GPGSA,A,3,01,02,03,,08,10,,25,28,31,32,44,1.4,0.8,1.1*38
2026-04-16 04:01:54.417  !AIVDM,1,1,,B,ENkb9HNaS@@@@@@@@@@@@@@@@@@;W;K@:k>=000003vP00,4*05
2026-04-16 04:01:54.419  $HCHDG,247.38,,,,*78
2026-04-16 04:01:54.420  $TIROT,-2.85,A*29
2026-04-16 04:01:54.438  $YXXDR,A,-112.62,D,Yaw,A,-2.34,D,Pitch,A,-0.53,D,Roll*48
2026-04-16 04:01:54.459  !AIVDM,1,1,,A,15NJQiP01fG@7SPEW@A47SAf04P4,0*1E
2026-04-16 04:01:54.517  $HCHDG,247.37,,,,*77
2026-04-16 04:01:54.518  $TIROT,-3.35,A*23
2026-04-16 04:01:54.534  $YXXDR,A,-112.63,D,Yaw,A,-2.34,D,Pitch,A,-0.53,D,Roll*49
2026-04-16 04:01:54.550  $GPGSV,3,3,12,28,55,128,47,31,36,166,46,32,51,042,47,44,46,171,49*74
2026-04-16 04:01:54.572  $IIVDR,12.77,T,,M,0.00,N*24
2026-04-16 04:01:54.608  $PGRME,3.8,M,6.6,M,7.6,M*24
2026-04-16 04:01:54.618  $HCHDG,247.36,,,,*76
2026-04-16 04:01:54.619  $TIROT,-4.28,A*28
2026-04-16 04:01:54.639  $YXXDR,A,-112.62,D,Yaw,A,-2.33,D,Pitch,A,-0.55,D,Roll*49
2026-04-16 04:01:54.669  $PGRMB,0.0,200,,,,K,,N,W*28
2026-04-16 04:01:54.709  $PGRMM,WGS 84*06
2026-04-16 04:01:54.720  $HCHDG,247.37,,,,*77
2026-04-16 04:01:54.721  $TIROT,-3.74,A*26
2026-04-16 04:01:54.735  $YXXDR,A,-112.62,D,Yaw,A,-2.33,D,Pitch,A,-0.54,D,Roll*48
2026-04-16 04:01:54.818  $HCHDG,247.38,,,,*78
2026-04-16 04:01:54.818  $TIROT,-3.33,A*25
2026-04-16 04:01:54.832  !AIVDM,1,1,,B,3815aDA0@0o@0phEVGBak9sb0Dg:,0*14
2026-04-16 04:01:54.836  $YXXDR,A,-112.59,D,Yaw,A,-2.33,D,Pitch,A,-0.55,D,Roll*41
2026-04-16 04:01:54.918  $HCHDG,247.40,,,,*77
2026-04-16 04:01:54.919  $TIROT,-0.47,A*25
2026-04-16 04:01:54.934  $YXXDR,A,-112.59,D,Yaw,A,-2.32,D,Pitch,A,-0.55,D,Roll*40
2026-04-16 04:01:54.984  $IIDPT,0.98,,*73
2026-04-16 04:01:55.013  !AIVDO,1,1,,,B52cumP00=l::t5GKvkQ3wsQl000,0*61
2026-04-16 04:01:55.021  $HCHDG,247.40,,,,*77
2026-04-16 04:01:55.021  $TIROT,-1.09,A*2E
2026-04-16 04:01:55.036  $YXXDR,A,-112.60,D,Yaw,A,-2.32,D,Pitch,A,-0.56,D,Roll*49
2026-04-16 04:01:55.037  $IIHDG,,,,015,E*16
2026-04-16 04:01:55.067  $IIHDM,,M*0C
2026-04-16 04:01:55.095  $IIHDT,,T*0C
2026-04-16 04:01:55.120  $GPRMC,040155,A,3730.7508,N,12211.6966,W,000.0,020.7,160426,015.0,E*64
2026-04-16 04:01:55.120  $HCHDG,247.39,,,,*79
2026-04-16 04:01:55.120  $TIROT,-3.42,A*23
2026-04-16 04:01:55.137  $YXXDR,A,-112.60,D,Yaw,A,-2.32,D,Pitch,A,-0.56,D,Roll*49
2026-04-16 04:01:55.137  $IIMTW,90.16,C*2D
2026-04-16 04:01:55.202  $IIMWD,,T,,M,1.59,N,0.82,M*43
2026-04-16 04:01:55.217  $HCHDG,247.39,,,,*79
2026-04-16 04:01:55.218  $TIROT,-4.74,A*21
2026-04-16 04:01:55.235  $YXXDR,A,-112.60,D,Yaw,A,-2.31,D,Pitch,A,-0.56,D,Roll*4A
2026-04-16 04:01:55.255  $IIMWV,038,R,1.59,N,A*15
2026-04-16 04:01:55.262  $GPGGA,040155,3730.7508,N,12211.6966,W,1,10,0.8,-3.2,M,-28.3,M,,*57
2026-04-16 04:01:55.296  !AIVDM,1,1,,A,ENkb:DdHh@@@@@@@@@@@@@@@@@@;WDC0:kUM@00003vP00,4*5D
2026-04-16 04:01:55.314  $IIRMB,V,,,,,,,,,,,,,N*45
2026-04-16 04:01:55.318  $HCHDG,247.39,,,,*79
2026-04-16 04:01:55.319  $TIROT,-3.90,A*2C
2026-04-16 04:01:55.340  $YXXDR,A,-112.59,D,Yaw,A,-2.31,D,Pitch,A,-0.57,D,Roll*41
2026-04-16 04:01:55.375  $IIRMC,,V,,,,,,,,015,E,N*35
2026-04-16 04:01:55.385  $GPGSA,A,3,01,02,03,,08,10,,25,28,31,32,44,1.4,0.8,1.1*38
2026-04-16 04:01:55.419  $HCHDG,247.39,,,,*79
2026-04-16 04:01:55.419  $TIROT,-3.18,A*2C
2026-04-16 04:01:55.434  $YXXDR,A,-112.59,D,Yaw,A,-2.30,D,Pitch,A,-0.58,D,Roll*4F
2026-04-16 04:01:55.439  $IIVHW,,T,,M,0.00,N,0.00,K*55
2026-04-16 04:01:55.443  !AIVDM,1,1,,B,15AkH`0uB8o>@0PEA5sVl5I`0HPS,0*72
2026-04-16 04:01:55.504  $IIVLW,5768.51,N,5768.51,N*4D
2026-04-16 04:01:55.522  $HCHDG,247.40,,,,*77
2026-04-16 04:01:55.522  $TIROT,-3.56,A*26
2026-04-16 04:01:55.530  $GPGSV,3,1,12,01,43,310,47,02,66,263,49,03,17,298,39,04,02,239,00*75
2026-04-16 04:01:55.535  $YXXDR,A,-112.59,D,Yaw,A,-2.30,D,Pitch,A,-0.58,D,Roll*4F
2026-04-16 04:01:55.556  $IIVTG,,T,,M,,N,,K,N*3B
2026-04-16 04:01:55.564  !AIVDM,1,1,,B,ENkb;0<Hah@@@@@@@@@@@@@@@@@;Wd6H:ewt000003vP00,4*1A
2026-04-16 04:01:55.568  $IIVDR,12.77,T,,M,0.00,N*24
2026-04-16 04:01:55.589  $PGRME,3.8,M,6.6,M,7.6,M*24
2026-04-16 04:01:55.620  $HCHDG,247.40,,,,*77
2026-04-16 04:01:55.620  $TIROT,-4.58,A*2F
